Unnamed: 0,state_code,latitude,longitude,zip_code,id,city,Unnamed: 6,name,labels,founded_at,closed_at,first_funding_at,last_funding_at,age_first_funding_year,age_last_funding_year,age_first_milestone_year,age_last_milestone_year,relationships,funding_rounds,funding_total_usd,milestones,state_code.1,is_CA,is_NY,is_MA,is_TX,is_otherstate,category_code,is_software,is_web,is_mobile,is_enterprise,is_advertising,is_gamesvideo,is_ecommerce,is_biotech,is_consulting,is_othercategory,object_id,has_VC,has_angel,has_roundA,has_roundB,has_roundC,has_roundD,avg_participants,is_top500,status
379,CA,43.13347108,-119.6369938,10003,c:20062,San Francisco,San Francisco CA 94105,Broadway Networks,0,01-01-2004,,03-06-2008,1/22/2007,7.588466612,5.637885483,2.856408848,2.316236461,0,2,12081241,1,CA,1,0,0,0,0,web,0,0,0,0,0,0,0,0,0,0,c:13504,0,1,0,1,0,0,1,0,acquired
688,CA,37.94071818,-121.7223158,60647,c:7329,Nashville,San Francisco CA 94108,oneforty,0,09-01-2004,2/17/2012,11/17/2008,7/23/2008,3.067708852,1.49862989,2.849868145,4.741546868,1,3,4831210,1,MD,0,0,0,0,1,hardware,0,0,0,1,0,1,0,1,0,0,c:24029,0,1,0,0,1,0,2.849917188,0,closed
641,UT,40.18065828,-75.33092773,20166,c:32094,Farmington,Burlingame CA 94010,EdgeSpring,0,12-03-2004,09-10-2011,02-01-2006,08-01-2010,1.676678172,1.56708089,0.685565283,7.213888856,1,2,12984506,1,MI,1,0,0,0,1,fashion,0,0,0,0,0,0,0,0,0,0,c:5485,1,0,1,1,0,1,4.840831248,1,acquired
695,NY,41.52775268,-73.49994823,45202,c:31549,Paramus,Pittsburgh PA 15219,Pixable,1,01-01-2010,12/24/2009,06-01-2004,06-01-2012,4.966061654,7.213371217,3.021974834,1.02846731,4,1,12793910,1,NY,1,0,0,0,1,advertising,0,0,0,0,0,0,1,0,0,1,c:52406,1,1,1,1,1,0,7.070906499,0,closed
598,OH,42.94503881,-92.57203643,10018,c:34549,Santa Clara,,Nettle,0,9/19/2009,,05-08-2007,02-01-2011,5.348132325,2.82601877,0.350909182,7.468930593,0,2,4025795,1,CA,0,0,0,0,0,biotech,0,0,0,0,0,0,0,0,0,0,c:107746,1,0,1,0,0,0,1.9214826,1,closed
494,TX,37.73880641,-121.4520131,90501,c:9668,Austin,Loveland CO 80538,Semantra,1,01-01-2003,,01-01-2012,8/15/2010,6.13698853,3.769224852,0.929742533,4.873951194,0,1,4246932,1,CA,0,0,0,0,0,enterprise,0,0,0,0,0,0,0,0,0,0,c:49960,1,0,0,1,0,0,3.721635224,1,acquired
794,CA,43.28619158,-122.7569561,94043,c:41957,San Francisco,,IQ Engines,0,01-01-2010,,06-01-2004,11/24/2009,1.714939933,5.120687158,3.195335356,2.073599103,0,1,2862063,2,CA,0,0,0,0,0,software,0,0,0,0,0,0,0,0,0,0,c:12630,0,0,1,1,0,0,1,1,closed
1050,CA,43.26751583,-117.9887608,92121,c:17775,New York,,Elanti Systems,0,01-01-2006,,01-01-2010,3/22/2005,4.684245533,2.424524453,2.711269153,2.750392487,0,2,15474812,0,CA,0,0,0,0,0,security,0,0,1,0,0,0,0,0,0,1,c:437,1,1,1,1,0,0,3.147564509,1,closed
936,WA,42.06610541,-71.06662625,75023,c:16264,San Diego,,Dexterra,0,01-01-2009,,09-06-2005,1/29/2007,5.54311634,2.651272444,5.666273283,4.696494427,0,2,11000,2,CA,1,0,0,0,0,web,0,0,0,1,0,0,0,0,0,1,c:6520,0,0,1,1,0,0,3.124047744,1,closed
687,CA,34.90943323,-121.1254241,90301,c:2234,Seattle,Chicago IL 60657,FlashSoft,1,01-01-2009,,2/22/2010,10-01-2008,1.384586264,5.002300535,,7.607343579,0,1,2283191,0,WA,0,0,0,0,0,web,1,0,0,0,0,0,0,0,0,1,c:107,0,0,0,0,0,0,3.18013236,1,closed
1069,CA,35.36868036,-75.5188557,92101,c:31514,Warrenville,,Inaura,0,10-01-2010,,08-01-2010,3/22/2010,6.976402619,4.215790859,2.973539436,1.956108019,0,2,403632,1,CA,1,0,0,0,0,web,0,0,0,0,0,0,0,0,0,1,c:76543,0,0,0,1,0,0,2.1566092,1,closed
242,CA,42.02829138,-91.25881762,90032,c:934,Sunnyvale,,Loyalty Lab,0,03-03-2005,,10/17/2006,07-01-2008,2.723205363,4.440613527,5.557277983,1.254642392,0,2,8236715,1,MA,1,0,0,0,0,mobile,0,0,0,0,0,0,0,0,0,1,c:36742,0,0,1,0,0,0,1.017220947,1,closed
808,MA,43.22698445,-122.2873413,43607,c:3610,Timonium,,Aptera,1,01-01-1996,,09-11-2007,10/21/2010,1.768772744,6.520158482,,7.8828613,0,1,37494065,0,NY,0,0,0,0,1,biotech,0,0,0,0,0,0,0,0,0,1,c:17620,1,0,1,0,1,0,4.200181434,1,closed
148,CA,42.52481594,-71.81264791,80202,c:22291,Tampa,,FireStar Software,0,08-02-2008,,10-07-2009,6/23/2011,2.361124338,1.677777952,2.257576803,2.665738381,0,4,10799010,1,CA,0,0,0,0,1,semiconductor,0,0,0,0,0,0,0,0,0,0,c:23487,1,1,0,1,0,0,3.993914903,1,acquired
687,WA,41.814092,-94.20314132,8827,c:6562,San Mateo,,Digital Reef,0,07-01-2004,03-06-2012,01-09-2008,3/20/2012,0.919483988,8.544712651,2.76614918,,0,4,22965151,1,WV,0,0,0,0,0,analytics,0,0,0,0,0,0,0,0,0,0,c:23234,1,0,0,1,0,0,1,1,closed
842,CA,41.33070178,-80.7698575,2109,c:42123,North Reading,Austin TX 78729,ShopRunner,0,01-01-2001,3/13/2013,8/27/2008,08-01-2011,1.636345649,4.653888855,2.850876924,3.564062133,1,1,10536262,1,PA,1,0,0,0,0,automotive,0,1,1,0,0,0,0,0,0,1,c:42227,0,1,1,1,0,0,1,0,acquired
466,CA,35.83371503,-119.6649785,60654,c:20488,Palo Alto,,Moonshoot,0,01-01-2007,,05-01-2006,05-01-2009,1.126007728,0.793292224,-0.177072788,,0,2,3082695,2,CA,1,0,0,0,1,web,0,0,0,0,0,0,0,0,0,1,c:833,0,0,1,0,0,0,4.41307884,1,acquired
667,GA,41.95094202,-96.18636116,8844,c:20506,Houston,Sunnyvale CA 94086,WAY Systems,0,09-09-2010,11-09-2011,11-01-2011,3/23/2007,4.067806828,4.06631935,1.404278835,2.805137179,1,2,14683329,1,ID,1,0,0,0,0,hardware,0,1,0,0,0,0,0,0,0,1,c:6592,0,0,1,0,1,1,1.015022026,0,acquired
212,CA,37.87730527,-119.1451304,95138,c:20146,Palo Alto,New York NY 10011,Lazarus Therapeutics,0,01-01-2003,,01-01-2006,11/29/2008,1.05612721,6.688650811,2.862207203,2.480420634,0,5,3529817,1,CA,0,0,0,0,0,semiconductor,0,0,0,0,0,0,0,0,0,0,c:62432,0,0,1,1,0,0,1,0,acquired
484,CA,40.91796395,-95.78946257,80302,c:16618,Addison,Brooklyn NY 11211,Certeon,0,12-01-2009,5/18/2009,1/24/2005,6/23/2010,2.945332461,4.070168514,2.954237215,8.319130223,0,2,11000,2,NY,0,0,0,0,1,other,0,0,0,0,0,0,0,0,0,1,c:60516,1,0,1,0,0,0,4.492081964,1,acquired
784,CA,38.06253039,-73.01403098,55416,c:465,San Francisco,Chicago IL 60631,DynamicOps,0,01-01-2003,,01-01-2005,6/23/2008,2.985193083,9.076637188,3.919225032,8.554845058,1,2,4442051,4,CA,0,0,0,0,0,network_hosting,1,0,0,0,0,0,0,0,0,1,c:12171,1,0,0,0,1,0,2.800283278,0,acquired
835,IL,42.17791191,-119.6764814,80302,c:20637,Westport,,Chronicity,0,01-01-2002,,05-01-2008,02-01-2007,1.727635588,2.862024722,2.834445831,1.817167015,4,2,11000,0,CA,0,0,0,0,1,software,1,0,0,0,0,0,0,0,0,1,c:1148,1,0,1,0,0,0,4.337194629,1,acquired
1047,CA,37.81585035,-118.6409381,94105,c:1899,Atlanta,,SearchMe,0,05-01-2010,,08-08-2005,12-01-2009,0.939767871,1.320791991,0.871473435,4.849131731,1,2,11000,0,CA,0,0,0,0,0,web,0,0,0,0,0,0,0,0,0,0,c:74928,1,0,0,1,0,0,1.231613434,0,closed
1103,CA,33.38355305,-120.2655983,27312,c:53946,Houston,Santa Clara CA 95054,MX Logic,0,01-01-2008,,12-11-2011,5/22/2006,2.776509001,7.784367205,1.5302546,5.034703547,0,1,16103512,3,CO,1,0,0,0,0,mobile,1,1,0,0,0,0,0,0,0,1,c:26368,0,1,1,1,0,0,1.778840793,1,closed
915,CA,33.72024757,-121.1226702,94080,c:35157,Mountain View,,Friendsignia,1,01-01-2007,,11-01-2007,3/20/2012,1.613456614,2.385461804,,3.148185904,0,2,1204239,2,CA,0,0,0,0,0,advertising,0,0,0,0,0,0,0,0,0,0,c:35433,1,0,1,1,0,0,2.215484898,1,acquired
528,CA,34.39580178,-95.92959034,95014,c:40152,Las Vegas,Burlington MA 1803,mFoundry,1,06-12-2012,,02-07-2008,03-11-2010,0.690568988,7.21169661,2.644730003,,0,2,28493047,1,CA,1,0,0,0,1,mobile,0,0,0,0,0,0,0,0,0,0,c:282,1,0,0,1,0,0,3.947490844,1,acquired
1033,PA,37.47981796,-118.8483502,98006,c:2478,Waltham,Farmington CT 6032,Help Me Rent Magazine,0,06-01-2007,01-01-2010,01-11-2010,02-01-2008,0.95128383,8.151364959,3.400389431,5.280860191,8,1,13014036,0,CA,1,0,1,0,0,cleantech,0,0,0,0,0,1,0,0,0,1,c:25325,0,0,1,0,1,0,1.783307928,0,closed
583,WA,35.50002096,-120.326137,91105,c:38019,Palo Alto,,Kashless,0,10-01-2007,,01-03-2008,2/27/2007,1.317084003,4.165066262,4.935420264,7.530476474,0,2,6456535,1,CA,1,0,0,0,1,cleantech,0,0,1,0,1,0,0,0,0,1,c:9668,1,0,1,1,1,0,1,1,closed
895,IL,37.71088571,-100.6119122,80302,c:63,South San Francisco,Washington DC 20009,Solidcore Systems,1,06-01-2006,,09-06-2006,01-11-2010,2.412954964,0.915052602,0.221948786,2.501903188,0,1,11000,4,CA,0,0,1,0,1,software,0,0,1,0,0,0,0,0,0,0,c:12957,0,0,0,0,0,0,6.221192346,0,acquired
909,TX,40.52151993,-99.96310318,60555,c:48640,Redmond,Lawrenceville GA 30043,Texert,1,2/14/2005,8/13/2009,05-01-2011,11-01-2009,4.628513588,3.484607143,2.959857414,4.094953215,2,2,17472390,3,TX,0,0,1,1,1,real_estate,0,0,0,0,0,0,0,0,0,1,c:41656,1,0,1,1,0,0,3.195866648,1,acquired
643,WA,33.89168236,-120.0403003,77380,c:17974,San Francisco,Cupertino CA 95014,DailyStrength,0,07-01-2008,,4/21/2006,8/19/2013,4.464281161,2.033187269,-0.143322317,4.835207169,0,4,13417367,2,VA,0,0,0,0,1,advertising,0,0,1,0,0,0,0,0,0,0,c:43480,1,1,0,0,0,0,2.078960968,0,closed
970,CA,42.28388418,-85.3297256,99202,c:21040,Providence,,Songbird,0,01-01-2000,,01-01-2006,10-12-2011,1.739814455,7.570914791,0.400980353,5.006488784,0,2,21490225,1,NY,0,0,0,0,1,mobile,0,0,0,0,0,0,1,0,0,1,c:1498,1,0,1,1,1,0,1,0,acquired
657,PA,37.50952651,-119.7908543,90301,c:20117,Cambridge,New York NY 10003,Asempra Technologies,0,08-01-2008,1/28/2011,4/13/2011,02-03-2011,3.021430094,1.040901931,,4.657047897,1,1,5254157,3,TX,1,0,0,0,1,ecommerce,0,1,0,1,0,0,0,0,0,0,c:10915,0,1,0,0,0,0,3.062053633,0,acquired
1153,CA,42.44497271,-72.36197671,2903,c:48640,Belmont,Greenwood Village CO 80111,Sabrix,0,01-01-2007,,07-12-2011,5/21/2010,0.632851833,7.485330033,3.861513729,1.628237711,0,2,17271886,3,CA,1,0,0,0,1,ecommerce,0,0,0,0,0,0,0,0,0,1,c:23335,1,0,1,1,0,0,3.340208074,1,closed
685,NY,41.34345055,-121.8482818,95035,c:45696,Idaho Falls,San Mateo CA 94401,NextMedium,0,01-01-2002,8/20/2013,08-10-2005,10-04-2011,0.78457809,3.996462194,,,2,1,71548787,4,CA,0,0,0,0,0,network_hosting,0,0,0,0,0,0,0,0,0,1,c:130,1,1,0,0,1,0,2.083223276,0,acquired
205,CO,41.79253126,-97.55779122,91360,c:55044,Princeton,,5min Media,1,04-01-2009,,01-01-2009,3/25/2008,1.132428801,5.256119321,5.820597203,,0,3,29004072,2,KY,1,0,0,0,0,web,0,0,0,0,0,0,0,0,0,1,c:20488,1,1,1,1,0,0,5.482274602,1,closed
232,PA,40.12747739,-89.41666139,90401,c:82843,Hartford,Seattle WA 98104,Rudder,1,10-01-2008,,11/22/2010,10-05-2010,3.23887209,5.808343163,0.492735949,5.016843867,5,2,1394549,1,CA,1,0,1,0,1,cleantech,0,0,0,1,0,0,0,0,0,0,c:3770,0,1,1,1,1,0,3.076199143,1,closed
1081,CA,31.84404973,-121.2702863,75082,c:25827,San Diego,,ShoeDazzle,0,01-01-2010,3/20/2009,05-12-2008,06-03-2010,1.183549126,1.491830783,2.697925864,7.913453085,0,1,9581840,1,CA,0,0,0,0,0,mobile,0,0,0,0,0,0,0,0,0,1,c:79149,0,1,0,0,0,0,3.333527363,1,closed
1026,CA,35.22069363,-122.3338345,21401,c:173118,Greenwood Village,New York NY 10012,DiJiPOP,1,01-01-2008,01-01-2012,06-01-2005,2/20/2007,0.656475823,0.619892964,8.192328222,8.70579573,0,1,1653499,3,CA,0,0,0,0,1,web,0,0,0,0,0,0,0,0,0,1,c:465,0,0,0,1,0,0,4.196151938,1,closed
863,CA,51.56299054,-87.70943543,94107,c:20146,Weston,San Francisco CA 94105,Oasys Mobile,0,01-01-2000,,08-01-2009,09-01-2008,2.5478726,1.636531932,1.194264416,3.118525514,0,3,9355179,1,NY,1,0,0,0,0,biotech,0,0,0,0,0,0,0,0,0,1,c:36892,0,1,1,1,0,0,3.322346477,1,closed
892,NY,33.88420978,-75.68148855,10004,c:27021,Cupertino,New York NY 10001,Thinkfuse,0,01-01-2007,06-01-2013,01-01-2011,4/25/2007,5.608752652,1.817667236,,4.700533614,1,2,20550971,1,WA,0,0,0,0,0,cleantech,0,0,0,0,1,0,0,0,0,1,c:32475,1,1,1,1,0,0,2.140027864,1,closed
353,CA,42.09940577,-120.7263618,10001,c:38460,Austin,,GoPollGo,0,01-01-2000,2/17/2012,03-01-2006,02-02-2009,0.214503775,5.399249347,,11.95163542,0,2,11000,0,CA,0,0,0,0,0,web,0,0,0,0,0,0,0,0,0,1,c:38220,1,0,0,1,1,0,4.706446713,0,closed
1026,CA,37.72066391,-120.557997,10011,c:14656,San Francisco,,Nimbula,0,01-01-2005,,05-05-2005,4/21/2010,2.308201896,5.079719568,0.18903261,,0,2,16078155,1,MA,0,0,0,0,0,web,0,0,0,0,0,0,0,0,0,0,c:1595,1,0,0,1,0,0,2.816773921,1,closed
1003,CA,37.63082015,-71.14355361,97035,c:14608,San Francisco,San Mateo CA 94401,VirtuOz,0,01-01-1997,8/20/2013,9/26/2005,3/20/2008,10.18609359,5.01916744,2.842658326,,1,2,8934792,3,CO,1,0,0,0,0,games_video,0,0,0,0,0,0,0,0,0,1,c:86,1,1,0,0,1,1,6.590757811,1,closed
639,CA,34.85955054,-94.09924507,94041,c:78759,Boxborough,Menlo Park CA 94025,Home-Account,0,11/15/2000,,02-01-2006,10/24/2008,1.119919145,1.735700604,4.112748328,4.621355022,0,1,50024872,1,NY,1,0,0,0,1,biotech,0,0,0,0,0,0,0,0,0,0,c:6520,0,0,1,1,0,0,2.114361015,1,closed
611,CA,40.72412988,-87.66327261,95032,c:48640,Addison,Austin TX 78701,Voxify,1,01-01-2009,5/23/2009,9/21/2006,5/20/2011,2.746740667,1.842441094,0.46526893,6.461198027,0,2,30310654,1,CA,0,0,0,1,0,other,1,0,0,0,0,0,0,0,0,0,c:41656,0,0,1,1,0,0,3.80685804,1,acquired
704,CA,41.54434502,-121.6223009,8540,c:38337,Boxborough,,Exit41,0,5/15/2005,,02-01-2006,10-01-2012,1.280162307,4.522941419,6.304613597,6.717012278,0,3,8274073,0,VA,1,1,0,1,1,software,0,0,0,0,0,0,0,0,0,1,c:35433,0,0,1,1,0,1,6.336308102,0,acquired
698,NC,34.28788344,-120.2161683,90038,c:76543,Minneapolis,Santa Clara CA 95051,Footnote,0,01-01-1998,04-01-2013,12-01-2003,09-11-2012,5.610182582,6.958947754,4.556651934,2.986869721,4,3,235024390,0,NY,1,0,0,0,1,enterprise,0,0,0,1,0,1,0,0,0,0,c:148566,0,0,0,0,1,0,3.426286314,1,closed
1119,MA,41.34137855,-85.88598433,98102,c:23234,Brooklyn,San Jose CA 95110,rPath,0,01-01-2011,01-04-2012,09-01-2005,12/16/2009,0.967251559,4.352048537,1.141575911,,0,1,11000,2,CA,0,0,0,0,1,network_hosting,1,0,0,0,0,0,0,0,0,0,c:1628,0,0,0,1,0,0,4.491420773,1,closed
696,CA,38.1834612,-120.2963837,10011,c:11531,San Diego,,Enclarity,1,01-01-2002,,12-01-2009,10-01-2006,0.818241436,1.590271435,0.630073254,5.062383555,0,2,30852062,1,CA,1,0,0,0,0,web,1,0,0,0,0,0,0,0,0,0,c:24570,1,0,1,0,0,0,2.021679872,1,closed
557,CA,37.65379399,-122.457563,10013,c:14483,San Franciso,,Classiphix,0,01-01-2003,08-01-2013,1/21/2010,04-11-2012,1.011776391,1.7566411,3.831886977,6.972663491,0,3,26259183,1,PA,0,0,0,0,0,advertising,1,1,0,0,0,0,0,0,0,1,c:42163,1,1,0,1,0,0,4.320473051,1,acquired
341,PA,45.7087933,-72.86725021,20165,c:1389,Toledo,San Jose CA 95110,KickApps,0,06-01-2005,,02-01-2009,7/20/2011,3.555604948,4.957377795,-1.710230337,4.386111142,1,2,9377386,1,NV,0,0,0,0,1,search,0,1,1,0,0,0,0,0,0,1,c:60352,0,1,1,1,1,0,3.743057092,1,acquired
963,NJ,37.28740638,-121.9700395,22902,c:41006,Idaho Falls,La Jolla CA 92037,CardStar,0,01-01-2005,,02-01-2008,12/19/2011,10.64851254,1.890571541,1.105978453,0.651725207,1,1,8546759,4,MA,1,0,0,0,0,software,0,0,0,0,0,0,0,0,0,1,c:37215,1,0,0,1,0,0,1,1,closed
984,CA,50.41083237,-117.6490657,10013,c:10153,Los Gatos,,Bueda,0,01-01-2007,,10/20/2010,6/21/2012,2.94960584,1.070552727,0.942816595,,0,2,7909833,1,CA,0,0,0,0,0,advertising,0,0,0,0,0,0,0,0,0,1,c:42062,1,1,0,0,0,0,1.10305847,1,closed
174,CA,43.68215777,-73.75734078,63043,c:47440,Minnetonka,San Diego CA 92130-2042,Kapow Software,0,01-01-1996,11/16/2010,11/17/2008,10/18/2011,1.540853641,6.999227425,3.03324132,5.13017006,0,1,11843134,1,MO,1,0,0,0,1,mobile,1,0,0,0,0,1,0,0,0,1,c:148576,1,1,1,0,0,0,2.625023417,1,closed
743,CA,41.51531856,-88.69638083,30043,c:13219,Pleasanton,San Francisco CA 94108,Cloudmeter,1,08-01-2010,,01-01-2009,10-10-2011,0.99892829,7.184988622,0.274221538,2.21346151,0,1,9542994,1,CA,0,0,0,0,0,games_video,1,0,1,0,0,0,0,0,0,1,c:1283,1,0,1,0,0,0,2.860720469,0,acquired
75,CA,38.05451053,-71.69647187,10003,c:45428,San Francisco,San Francisco CA 94105,Solidcore Systems,0,01-01-2010,,03-01-2006,3/31/2011,2.832680892,4.549405182,-0.455679895,2.3923184,0,6,6319303,1,CA,0,0,0,0,0,other,0,0,0,0,0,0,0,0,0,1,c:72,1,0,0,0,0,0,3.587148292,1,closed
1153,WA,37.79066545,-117.9583544,85281,c:42610,Woburn,,Bill Me Later,0,01-01-2006,,11-01-2007,12-10-2009,4.359837801,1.430493798,3.153628835,,0,1,11000,5,CA,0,0,0,0,1,mobile,1,0,0,0,0,0,0,0,0,1,c:1766,0,0,0,1,0,0,3.065828222,1,closed
489,CA,43.35025709,-119.6482688,33626,c:45111,San Francisco,San Diego CA 92121,Home-Account,0,01-01-2007,08-01-2012,5/29/2008,8/29/2007,1.045105324,5.839445256,-0.27412624,3.475043306,0,3,10371024,1,CA,0,0,0,0,0,semiconductor,0,0,1,1,0,0,0,0,0,1,c:12630,1,0,0,1,0,0,1.561906973,1,acquired
950,PA,41.79016076,-119.6717451,91105,c:25307,Dallas,Providence RI 2903,BlackLocus,1,01-01-2010,01-01-2013,10-05-2009,3/15/2010,4.800874742,2.805621184,3.046394281,2.570813155,8,2,46896138,1,CA,1,1,0,1,1,cleantech,0,0,0,0,0,0,0,0,0,0,c:23125,1,0,0,0,1,0,4.064600134,1,closed
625,OH,41.37758418,-121.0795299,6032,c:1853,Alpharetta,,Livemocha,0,01-01-2002,11-01-2012,05-06-2005,08-01-2009,2.536294757,9.039714222,3.20322135,4.795551845,0,5,14093612,1,NY,1,0,0,0,0,enterprise,0,0,0,0,0,0,0,0,0,1,c:6219,0,1,1,1,0,0,2.939718317,0,closed
185,CA,41.7453892,-121.939402,94107,c:59054,New York,,Plethora Technology,0,08-01-2010,06-01-2013,08-08-2005,12/29/2009,0.713547757,4.009737196,3.426783453,2.478856089,0,1,49852317,3,CA,0,0,0,0,0,web,0,0,0,0,0,0,0,0,0,1,c:765,0,0,0,0,0,0,2.192787134,1,closed
788,CA,37.63487042,-120.9033959,10007,c:1923,The Woodlands,,Teknovus,0,01-01-2002,,01-01-2011,10/28/2009,2.146940917,2.760220734,0.454415196,2.177419883,3,1,78712454,2,WA,0,0,0,0,0,search,0,0,0,0,0,0,0,0,0,0,c:14993,1,1,0,0,0,0,1.045407909,1,closed
940,VA,41.57963358,-120.2296208,10018,c:50162,San Francisco,,PayParade Pictures,1,05-11-2004,02-01-2013,09-12-2002,12-01-2011,3.21823445,6.260716532,1.033252531,5.052736874,0,1,11149631,4,CA,1,0,0,0,1,hardware,1,0,0,0,0,0,1,0,0,1,c:42501,1,0,1,1,0,0,4.964051438,1,acquired
247,CA,42.17879793,-70.75511201,45202,c:70661,NW Atlanta,Cupertino CA 95014,Sweepery,0,02-01-2010,,05-11-2009,05-01-2010,1.403438753,1.047881033,1.133603112,4.317736032,0,2,2942204,1,NY,0,0,0,0,1,software,0,1,0,0,0,0,0,0,0,0,c:10915,1,0,0,0,0,0,1.897927011,0,acquired
1003,CA,42.46532479,-120.4443223,94066,c:68157,San Francisco,,Pinch Media,1,01-01-2007,,8/15/2010,10-05-2010,0.628057137,3.903949344,2.891449701,2.16267907,0,2,9272285,1,CA,1,0,0,0,1,network_hosting,1,0,0,0,0,0,0,0,0,1,c:60436,1,0,0,1,1,1,2.1065578,1,acquired
854,CA,33.23395771,-122.126698,6032,c:7207,New York,,Smooth-Stone,0,01-01-2004,,01-01-2004,4/25/2007,0.752498361,2.228603967,0.778888799,4.63630672,0,1,11000,3,CA,1,0,0,0,0,web,0,0,0,0,0,0,0,0,0,1,c:17774,1,0,1,1,0,0,3.501561983,1,closed
982,CA,40.88942785,-120.2887418,45202,c:54177,Wilmington,Minneapolis MN 55311,Mytopia,1,5/24/2005,08-05-2011,05-09-2008,05-03-2010,1.02668883,2.245056854,,,1,1,51233622,0,CA,1,0,0,1,0,advertising,1,0,0,0,0,0,0,0,0,0,c:29387,0,1,1,1,0,0,1.581271078,1,acquired
947,WA,37.84965817,-117.9881982,2903,c:155821,Addison,Raleigh NC 27518,ScaleIO,0,08-01-2008,02-01-2011,1/23/2006,02-03-2011,1.484245937,1.272863358,3.261411918,2.987551909,0,2,5975638,0,GA,1,0,0,0,0,web,0,0,0,0,0,0,0,0,0,1,c:9822,1,1,1,0,0,0,1.274795847,1,closed
686,CA,39.93240251,-84.61904268,95037,c:65601,Bingham Farms,,Viewdle,1,01-01-2007,,02-08-2008,1/28/2013,4.873514041,2.260999942,,3.053565826,5,4,7477291,1,CA,0,0,0,0,0,other,1,0,0,1,0,0,0,0,0,0,c:14593,1,0,0,0,0,0,3.09908737,0,acquired
1076,CA,37.78772141,-120.5877133,20814,c:1590,Solana Beach,,StyleZen,0,06-01-2010,02-01-2011,10-03-2008,8/23/2007,15.51766723,0.527425731,-0.185224825,4.606745865,3,6,11505713,1,WA,1,0,0,0,0,advertising,0,1,0,0,0,0,0,0,0,1,c:152560,0,1,1,1,0,0,1,0,closed
1027,CA,49.98358494,-122.2677468,95054-2913,c:70661,New York,,Beceem Communications,0,01-01-2003,,04-07-2010,10-03-2012,0.640062338,4.067353332,1.081783358,2.544430431,0,1,16626876,1,CA,1,0,0,0,0,security,0,0,0,0,0,0,0,0,0,1,c:7666,0,0,0,1,0,0,2.092281674,1,closed
832,CO,37.74665714,-120.6680231,22182,c:38019,Oakland,,WeShow,1,01-01-2000,02-01-2011,06-01-2005,04-05-2006,5.420696128,1.756302605,0.45336867,4.575773191,0,2,7836846,2,VA,0,0,0,0,1,biotech,0,0,0,0,0,0,0,0,0,1,c:45428,0,0,0,0,0,0,1.846618096,1,acquired
660,CA,35.75428038,-118.9082231,92656,c:1111,Dallas,,Beceem Communications,0,03-01-2007,,1/29/2007,11/24/2010,0.951809163,1.390129677,,2.053368039,0,3,11977126,3,CA,1,0,0,1,1,network_hosting,0,0,0,0,0,0,0,0,0,0,c:78868,0,0,0,1,0,0,3.62121447,1,closed
658,CA,41.23682962,-70.81625448,10013,c:22291,Mountain View,,Intela,0,01-01-2003,01-01-2011,01-01-2008,04-08-2010,5.281297185,4.435164791,5.786108045,5.406085619,0,1,8703800,1,CA,0,0,0,0,1,web,0,0,0,0,0,0,0,0,0,1,c:51379,1,0,1,1,0,0,2.926578572,1,closed
1002,CA,41.84704902,-119.7869453,80302,c:18897,New York,San Diego CA 92121,Viewdle,1,01-01-2007,,01-01-2007,09-11-2007,0.831065067,0.938502634,-0.272920809,4.356714335,0,1,10426760,0,VA,1,0,0,0,1,software,0,1,0,0,0,0,0,0,0,0,c:13410,1,0,0,1,0,0,1.780093159,0,acquired
1007,CA,41.74858841,-89.79844802,98052,c:34522,Sunnyvale,,TelASIC Communications,1,08-01-2010,,2/18/2010,11/24/2009,1.350776167,3.688190559,1.698555968,4.59464258,0,2,8777607,1,CA,1,0,0,0,1,web,0,1,0,0,0,0,0,0,0,1,c:24274,0,0,1,0,0,0,2.147135555,1,closed
611,NY,33.69823639,-87.89188467,94005,c:7376,Indianapolis,,Pacinian,0,01-01-2005,,01-01-2007,3/15/2010,10.5154448,8.537129658,,,0,2,11000,2,CA,0,0,0,0,1,web,0,0,0,0,0,0,0,0,0,1,c:17429,1,1,0,1,0,0,1.989532099,1,closed
356,NM,41.21548238,-122.1424966,94035,c:25782,New York,,FiveRuns,0,01-01-2005,,09-01-2006,10-02-2008,1.693909151,9.190743007,3.817362407,6.630122409,0,1,13895578,2,VA,0,0,0,0,1,semiconductor,0,0,0,0,0,0,0,0,0,0,c:158294,0,1,1,1,1,0,1.202514614,1,closed
946,NC,37.6761569,-77.03144539,94103,c:3185,Petaluma,West Chester PA 19380,Crossing Automation,1,07-01-2007,03-06-2012,4/30/2007,08-01-2007,1.591885516,1.34665352,1.662450494,,3,4,16050249,1,CA,1,0,0,0,0,music,0,0,0,0,0,0,1,1,0,1,c:45525,1,0,1,1,0,0,4.601578958,1,acquired
999,MA,34.19286514,-73.36265968,33327,c:5988,New York,,Resonant Vibes,1,01-01-2010,,3/24/2010,10/20/2010,1.802456474,2.115567499,2.820722385,7.167592593,0,1,14126611,0,MA,1,0,0,0,0,network_hosting,0,0,1,0,0,0,0,0,0,1,c:9085,1,0,1,0,0,0,1.268150881,1,acquired
212,CO,49.75249478,-84.95687436,92618,c:16189,Farmington,,Kolorific,1,05-01-2010,06-01-2012,05-05-2011,2/17/2010,1.909978269,7.103629565,2.805058101,2.129687158,2,3,11000,2,TX,0,0,1,0,0,web,0,0,0,0,0,0,0,0,0,1,c:44064,1,1,0,0,0,1,1,1,closed
493,CA,41.50868771,-120.8519512,19312,c:5932,Bellevue,,Transactiv,1,01-01-2007,,11-01-2006,11/24/2009,5.385884676,1.383542627,3.149050701,4.030180059,0,2,19414249,0,MA,1,0,1,0,0,security,0,0,0,0,0,0,0,0,0,1,c:14028,1,0,0,1,0,0,3.744016231,0,closed
1029,FL,41.5617776,-89.91566393,2906,c:12171,Denver,Jersey City NJ 7302,Wink,0,12-01-2008,11-05-2012,10/14/2005,8/19/2013,1.144570786,4.289769502,5.996086592,7.428065379,8,2,63935942,1,CA,0,0,0,1,1,transportation,0,0,0,1,0,0,0,0,0,0,c:77,0,0,0,0,0,0,3.43431036,1,acquired
917,CA,43.68930742,-120.8422365,10018,c:47440,New York,Brisbane CA 94005,Ecast,1,01-01-2006,,11-01-2006,05-04-2010,4.727370535,2.121095743,0.786250003,2.735892016,0,1,11000,1,CA,0,0,0,0,1,medical,0,0,0,0,0,0,0,0,0,1,c:59054,1,0,0,0,0,0,3.600501172,0,closed
644,CA,34.67629486,-120.1519317,94111,c:15645,San Francisco,,RipCode,0,01-01-2008,,3/20/2012,1/26/2009,2.599735006,0.941295972,7.010252037,8.336764431,0,1,17191354,1,WA,0,0,0,0,0,web,0,0,0,0,0,0,0,0,0,1,c:33912,1,0,1,1,0,0,2.142020301,1,closed
1034,CA,37.97341171,-120.9026608,94107-4132,c:24860,New York,New York NY 10016,Locu,0,01-01-2008,01-01-2012,05-05-2005,02-03-2011,0.982663399,3.950902731,3.145443828,3.057134148,0,1,11003054,2,MA,1,0,0,0,0,ecommerce,0,0,1,0,0,0,0,0,0,1,c:43458,1,0,1,1,0,0,2.811222624,0,closed
1153,CA,37.67384634,-118.9314915,94105,c:21492,New York,,TimeBridge,0,01-01-2004,,08-01-2006,01-01-2008,1.319093222,0.345315325,,4.184317625,0,2,11000,0,CA,0,0,0,0,0,web,0,0,0,0,0,0,0,0,0,1,c:278,0,0,0,1,0,0,1,0,acquired
225,CA,42.10215519,-119.8012062,10013,c:51228,San Mateo,,Sionex,0,06-01-2011,,02-01-2007,02-03-2011,5.577172446,6.72817638,1.318075353,,2,1,14530632,0,CA,0,0,0,0,0,advertising,0,0,0,0,0,0,0,0,0,0,c:83176,1,0,1,0,1,0,3.981874379,1,closed
929,CA,33.29758777,-70.49123844,94107,c:3562,Seattle,,Kardia Health Systems,0,01-01-2000,,03-01-2008,05-05-2011,1.227744834,8.710369711,2.691051215,1.588658794,0,1,7342370,2,MA,0,0,1,0,1,web,0,0,0,0,0,0,0,0,0,0,c:314,0,0,1,1,0,0,1,1,closed
718,NY,33.71863003,-72.36171466,84042,c:10864,Jersey City,New York NY 10005,Chomp,0,01-01-2006,,11/19/2010,03-07-2007,0.587135874,6.658175624,4.240526188,,1,2,13495817,1,NY,1,0,0,0,1,web,0,0,0,0,0,0,0,0,0,1,c:150577,1,0,1,1,0,0,1.012547064,0,acquired
1075,CA,36.18429262,-118.3849306,92121,c:19101,San Francisco,,GlobalCrypto,0,01-01-2003,,5/29/2008,01-01-2010,2.240208678,6.230300994,-0.138502597,2.931802272,0,2,1902180,2,CA,0,0,0,0,0,analytics,0,0,0,0,0,0,0,0,0,1,c:44064,1,0,1,0,0,0,1,0,acquired
189,WA,34.29937218,-93.12541604,92887,c:62802,Woodbury,Houston TX 77046,Wellcore,0,12-01-2009,01-01-2013,02-01-2010,09-10-2009,5.018037994,0.828041664,2.800094495,,1,2,3774324,3,MA,1,0,0,0,0,software,0,0,0,0,0,0,0,0,0,0,c:1389,1,0,1,1,0,0,1.16194106,1,acquired
394,CA,40.59155382,-84.04290785,27312,c:35887,Plano,,Inhale Digital,0,02-01-2010,09-04-2012,02-08-2008,03-01-2010,6.7542875,2.45451012,3.837421247,4.805659693,6,3,3107714,3,CA,1,0,0,0,1,web,1,0,0,0,0,1,1,0,0,0,c:16613,0,0,1,1,0,0,4.858591557,0,closed
711,CA,42.50753741,-122.7569561,98052,c:668,Duluth,Hillsborough NJ 8844,Attune Systems,0,01-01-2009,4/29/2010,08-02-2005,04-01-2004,1.570937149,3.657139815,1.970008508,5.078454186,8,1,11545039,0,NY,0,1,0,0,1,enterprise,1,0,0,0,0,0,0,0,0,0,c:454,0,0,1,0,1,0,4.338807851,1,acquired
1103,CA,34.23344752,-120.2172351,83402,c:47848,Louisville,New York NY 10014,YouTube,0,01-01-2008,06-01-2013,3/20/2007,4/22/2009,2.549774469,6.353752377,0.235281493,4.230332961,3,1,9359278,2,VA,0,0,0,0,1,mobile,0,0,0,0,0,0,1,0,0,1,c:44650,0,1,1,0,0,0,3.412702693,1,acquired
910,WA,41.3204102,-67.03109241,1803,c:71852,Mountain View,Maynard MA 1754,Giiv,0,01-01-2008,,04-01-2009,03-02-2005,1.083934953,8.494874037,2.882503405,0.267088273,0,3,5774269,1,VA,0,0,0,0,0,software,0,0,0,0,0,0,0,0,0,1,c:55122,0,1,0,1,0,0,3.667188729,0,acquired
1061,CA,48.64414607,-74.3955291,95054,c:30,San Francisco,Cupertino CA 95014,Pocket Communications Northeast,1,02-01-2000,01-01-2013,09-11-2007,06-01-2007,0.663890473,1.040858974,1.362117707,2.638574602,0,1,2844642,2,CA,1,0,0,0,1,web,0,1,0,0,0,0,0,0,0,0,c:150658,0,0,1,1,0,0,1.016454702,0,acquired
586,CA,33.45428438,-121.4983196,80205,c:107,San Francisco,Paramus NJ 7652,Elanti Systems,1,01-01-2001,,11-01-2011,4/25/2007,0.873554952,6.697374,,3.639151246,0,2,45938478,3,GA,0,0,0,0,0,web,1,0,0,0,0,0,0,0,0,0,c:1967,1,1,1,1,0,0,3.57000253,0,acquired
1007,CA,43.31856096,-119.2380564,95134,c:28403,Little Rock,,Broadway Networks,0,01-01-2003,,5/29/2008,12/15/2009,2.841468326,1.474605182,3.055985244,5.247290222,0,2,7363109,1,MA,1,0,1,0,0,network_hosting,0,0,0,0,0,0,0,0,0,1,c:15294,1,0,0,1,0,0,1.770532395,1,acquired
157,GA,41.96494368,-99.0799056,2466,c:23139,Cambridge,Pasadena CA 91105,U.S. Fiduciary,1,10-01-2008,1/28/2011,6/15/2010,06-01-2012,2.608423314,1.792703396,0.459285815,4.82615131,1,2,52710409,3,TX,0,0,0,1,1,security,0,1,0,1,0,1,0,0,0,0,c:38337,1,1,1,0,1,0,1.952699759,0,acquired
713,CA,43.02880263,-122.6292565,80155,c:6313,New York City,,Fortisphere,0,4/22/2005,,02-01-2006,4/18/2005,0.786133557,4.633177419,8.725253377,5.255691735,0,2,28545455,0,CA,0,0,0,0,0,software,0,0,0,0,0,0,0,0,0,0,c:24274,1,0,1,0,0,0,1,1,acquired
681,TX,34.11789376,-71.13980655,1803,c:31559,Providence,San Mateo CA 94401,Waze,1,01-01-1998,07-07-2012,05-10-2006,05-03-2011,1.064503973,1.98179313,3.222968776,4.060079728,0,1,11000,3,MA,1,0,0,0,1,network_hosting,0,0,0,0,0,0,0,0,0,0,c:38655,1,0,1,1,0,0,6.88818143,0,acquired
129,MA,41.84414552,-121.2039454,98104,c:25997,Mountain View,Santa Monica CA 90404,Exclusively.in,1,11-01-2008,04-01-2013,02-01-2011,03-01-2009,2.839643655,4.076095677,3.141032302,1.887433515,2,4,15348602,1,NY,1,0,0,0,0,biotech,0,0,0,0,0,0,0,0,0,1,c:835,1,0,0,1,1,0,1,1,closed
1081,CA,35.10659317,-120.1442648,10012,c:24549,San Francisco,,Social Collective,0,01-01-2001,,10/21/2010,03-04-2010,1.052881734,1.415963624,0.141983677,4.439440625,0,1,16960101,2,VA,1,0,0,0,1,software,0,0,0,0,0,0,0,0,0,0,c:11498,1,0,0,1,0,0,1,1,acquired
704,CA,42.29174774,-119.0385703,95054,c:1078,San Francisco,,Pipewise,1,01-01-2005,,12-01-2007,11-05-2010,1.341507215,0.348504787,0.08434713,2.862276112,0,2,11000,1,CA,0,0,0,0,1,software,0,0,0,0,0,0,0,0,0,1,c:38504,1,0,1,0,0,0,2.178660417,1,closed
978,CA,37.68888623,-122.3738454,95066,c:27285,Cupertino,,Make It Work,0,01-01-2005,,02-01-2005,11-01-2011,1.128772965,4.139316914,0.762772613,2.388674187,0,2,11000,1,CA,0,0,0,0,0,other,0,0,0,0,0,0,0,0,0,1,c:17429,1,0,1,0,0,0,1,1,closed
1031,CA,42.22408387,-119.797265,94404,c:148284,Arcadia,San Francisco CA 94107,Pulse,1,01-01-2002,01-01-2012,11-11-2009,11-10-2011,5.869660064,2.73462525,3.81834344,5.010784215,0,1,2886176,3,WA,1,0,0,0,0,hardware,0,0,0,0,0,0,0,0,0,1,c:60186,1,0,1,0,0,0,1.516192007,1,closed
989,MA,39.94045374,-72.33715142,21703,c:49872,San Mateo,Campbell CA 95008-2069,ClairMail,0,11-01-2006,01-01-2012,5/20/2010,07-02-2012,0.616743444,7.281704765,2.272449616,5.95095785,0,2,15452355,0,MA,1,0,0,0,1,advertising,0,0,0,0,0,0,0,0,0,1,c:13410,0,0,1,0,0,0,1.180434383,1,acquired
785,CO,37.71794245,-120.7797991,94070,c:18897,Mountain View,Cincinnati OH 45202,#waywire,0,01-01-2003,,01-05-2010,09-01-2008,0.531826062,1.56022501,3.044803515,3.044400911,0,1,11000,0,PA,1,0,0,0,1,enterprise,0,0,1,0,0,0,0,0,0,1,c:1895,0,0,0,1,0,0,2.789026895,0,closed
627,CA,34.55894204,-121.1962939,60555,c:41957,Needham,Princeton NJ 8540,RingCube Technologies,0,08-02-2008,5/19/2011,6/27/2006,8/20/2008,0.978672743,1.854123116,3.051513872,7.221366221,4,3,6170338,0,CA,1,0,0,0,0,cleantech,0,0,0,0,0,0,0,0,0,0,c:23335,0,0,1,0,0,0,4.305258329,0,acquired
1072,CA,34.25683121,-122.7514901,1267,c:253,San Francisco,Bellevue WA 98004,Airship Ventures,0,05-01-2005,,6/30/2012,01-01-2006,1.576093133,4.314048594,0.787567291,3.220298822,3,3,5537778,1,CA,0,0,0,0,0,public_relations,0,0,0,0,1,1,0,0,0,1,c:2178,0,0,1,1,0,0,3.777523058,1,acquired
578,NM,41.91197738,-74.12499036,97062,c:57923,Los Angeles,Pleasanton CA 94588,Swaptree Inc.,0,10/17/2007,4/26/2012,07-12-2007,8/31/2010,0.81558849,1.579119933,-0.542375148,3.808519784,0,2,42735023,0,KY,1,0,0,0,1,ecommerce,1,1,0,0,0,0,0,0,0,1,c:26612,0,0,0,1,1,0,6.975659047,1,closed
984,VA,57.22612053,-120.8849864,1720,c:23072,Chicago,San Francisco CA 94111,CHiL Semiconductor,1,07-01-2007,,03-01-2005,02-01-2011,3.444855589,0.663801404,2.339239469,4.811209916,6,1,5700251,2,ID,1,0,0,0,1,web,1,0,0,0,0,0,0,1,0,0,c:3122,0,0,0,0,0,1,1.148648073,0,closed
673,CA,40.90554798,-121.9081799,95051,c:46893,New York City,,Newfield Design,1,09-01-2010,,8/23/2008,8/20/2008,1.420003173,3.57654968,,5.49231008,0,2,10750379,1,TX,0,0,0,0,0,security,0,0,0,0,0,0,0,0,0,1,c:25743,1,1,0,1,0,0,1.856345048,1,closed
1124,NY,37.65061315,-121.9352113,20170,c:27142,San Francisco,San Francisco CA 94107,Instagram,0,01-01-2008,6/15/2012,9/29/2006,9/29/2006,6.584167717,2.18311513,1.569458052,6.233049951,0,2,29847128,2,TX,0,0,0,0,0,mobile,1,0,0,0,0,0,0,0,0,0,c:16303,1,0,0,1,0,0,6.282261154,1,closed
652,WI,40.11981201,-74.33141917,75081,c:3962,Wilmington,New York NY 10011,Andigilog,0,7/26/2010,10/31/2012,12/21/2005,12-08-2009,0.740485489,4.527407331,2.944521241,4.778456096,2,1,221486353,1,IL,1,0,1,0,0,cleantech,0,0,0,0,0,1,0,0,0,0,c:35579,1,0,1,1,0,0,2.7505272,1,closed
86,VA,37.66100802,-72.33276435,94301,c:9085,New York,,Offermatic,0,01-01-2005,,01-01-2008,07-01-2008,0.565382362,1.189817625,5.565829744,3.626764319,0,2,13526110,3,CA,0,0,0,0,0,ecommerce,1,0,0,0,0,0,0,0,0,1,c:55421,0,1,0,0,0,0,1.132766194,0,acquired
725,CA,41.66744866,-121.1074649,94063,c:9772,Campbell,,Compete,0,01-01-2004,,6/23/2010,6/21/2012,1.010193698,5.478637616,2.119020258,4.020550095,0,4,51093489,1,CO,0,0,0,0,1,advertising,0,0,0,0,0,0,0,0,0,1,c:31514,1,0,0,1,0,0,3.743246905,1,acquired
284,WI,42.67225049,-119.5209114,84124,c:51623,San Francisco,,FetchBack,0,01-01-2010,,12-02-2009,7/14/2010,1.136226022,4.67415963,2.810003543,6.726252015,0,3,3200001,0,CA,0,0,0,0,1,web,0,1,0,0,0,0,1,0,0,0,c:763,1,0,0,0,0,1,1.62526174,1,closed
131,CA,40.99326757,-121.4923233,27312,c:1590,Mountain View,Alpharetta GA 30009,Broadway Networks,0,07-01-2007,03-04-2010,02-01-2007,2/24/2011,1.364978828,8.343866649,3.628260342,5.090618681,0,3,3993798,2,WA,0,0,0,0,0,web,0,0,0,0,0,0,0,0,0,0,c:60,0,0,1,1,0,0,1.898738983,1,closed
1065,CA,38.04749707,-91.14126391,94065,c:167,Timonium,Santa Clara CA 95051,VoodooVox,1,01-01-2001,09-01-2011,08-01-2006,11/24/2009,0.5733286,2.58730629,2.971897177,9.127862153,9,2,4826871,1,CA,0,0,0,0,0,other,0,0,1,0,1,0,0,0,0,1,c:37929,0,0,1,1,0,0,2.763395207,1,closed
845,CA,37.6826871,-120.7488436,72201,c:46943,Los Angeles,,LaunchGram,0,01-01-2008,,10/21/2010,02-11-2011,0.773854883,7.73793018,2.794499395,4.843839986,0,1,41756887,1,PA,0,0,0,0,0,network_hosting,0,0,0,0,0,0,0,0,0,0,c:54585,0,0,1,1,0,0,2.120293542,0,closed
529,CA,41.55201162,-119.7829799,10016,c:35433,Burlington,,Internet Pawn,1,08-01-2009,,12-01-2008,12-07-2012,0.993822638,5.923265645,3.388570791,2.697360147,0,2,11537686,1,CA,1,0,0,0,1,web,0,0,0,1,0,0,0,0,0,0,c:13219,1,0,1,1,0,0,4.338803248,1,closed
991,TX,33.19359855,-121.4530966,95051,c:16611,Burlington,Raleigh NC 27518,EQAL,1,08-11-2006,08-01-2013,6/20/2005,03-10-2009,4.486517652,1.948374315,1.233393751,9.863080927,3,1,2465815,2,NY,0,0,0,0,0,analytics,0,0,0,0,0,1,0,0,0,1,c:49236,0,0,0,1,0,0,1.668335433,1,closed
1011,MD,33.99720627,-68.89049156,20165,c:42123,Scotts Valley,Burlington MA 1803,Conformity,0,01-01-2001,2/17/2012,12/15/2005,05-02-2007,2.077078224,1.604581408,,4.375757064,0,1,13456908,2,VA,0,0,0,0,1,biotech,0,0,1,0,1,1,0,0,0,1,c:39801,1,0,1,1,0,0,3.116599594,1,acquired
994,CA,37.79900698,-93.04724584,78701,c:1613,Paramus,,PacketHop,1,09-01-2007,01-01-2012,07-01-2005,7/27/2006,2.288241733,7.341551767,2.967845577,8.565631834,1,2,9816916,4,WA,0,0,0,0,1,web,0,0,0,0,0,0,0,0,0,1,c:19725,1,1,1,1,0,0,3.755323045,1,closed
798,AZ,42.11011235,-120.1952262,98119,c:16273,Maynard,New York NY 10012,Lazarus Therapeutics,1,04-01-2007,01-01-2011,10-01-2002,03-04-2008,5.493264681,2.023931391,2.85834885,4.443040757,10,3,489374,3,OR,0,0,1,0,0,transportation,1,0,1,0,0,0,0,0,0,0,c:20146,1,1,0,1,0,0,6.661875524,1,closed
497,CA,41.99672648,-84.72843584,98006,c:39801,New York,Irvine CA 92612,SpiralFrog,0,01-01-2008,,12/27/2006,07-01-2009,0.662585492,8.075292191,2.897819485,4.953711913,0,2,10261361,1,WA,0,0,0,0,1,software,0,0,0,0,0,0,0,0,0,1,c:668,0,0,1,1,0,0,2.459437212,1,closed
1049,CA,41.51289036,-71.81590383,94501,c:1669,Berkeley,,DubMeNow,0,01-01-2006,03-04-2010,11-01-2010,4/19/2010,3.047996073,6.90295292,5.606986399,3.546701432,1,2,34401569,1,CA,0,0,0,0,1,web,0,0,1,0,0,0,0,0,0,0,c:43875,1,0,1,0,0,0,7.201827253,0,acquired
857,KY,37.88414136,-121.5811122,92130,c:46943,New York,West Newfield ME 4095,Newfield Design,1,01-01-2006,,01-01-2007,8/23/2011,1.501292963,1.915758084,,10.30437962,0,2,6651923,0,CA,0,0,0,0,0,semiconductor,0,0,0,0,1,0,0,0,0,1,c:15687,1,0,0,0,0,0,1.967097441,0,acquired
608,CA,42.07073629,-120.3845779,30009,c:42672,Richardson,,Veoh,0,12-01-2006,05-01-2013,05-01-2008,01-01-2009,11.10113654,0.902809479,0.789659269,5.833964692,0,4,12141121,1,MA,0,0,0,0,0,enterprise,1,0,0,0,0,0,0,0,0,1,c:37780,1,0,1,1,1,0,4.186605437,1,acquired
970,GA,42.22271069,-119.8667595,80302,c:173,Palo Alto,San Jose CA 95134,Luminus Devices,0,01-01-2008,,07-01-2007,04-01-2012,4.898901238,3.774399173,2.46350844,2.452127205,0,2,11000,1,CA,0,0,0,0,0,web,0,0,0,0,0,0,0,0,0,1,c:47848,1,0,1,1,1,0,3.95670418,1,acquired
900,CA,37.58167719,-73.16058691,3101,c:1107,Cambridge,,Revetto,0,01-03-2000,,11-11-2008,11-01-2010,2.645646325,10.01832021,,7.943083373,0,2,11399485,1,NY,1,0,0,0,0,web,0,0,0,0,0,0,0,0,0,0,c:35887,0,0,0,1,0,0,4.003112632,1,acquired
1030,CA,34.76727074,-72.76257331,94043,c:30820,San Francisco,,TxVia,0,01-01-2000,,07-01-2006,12/29/2009,1.935576293,1.204615545,,2.991098859,0,2,10500887,0,CA,0,0,0,0,0,enterprise,1,0,0,0,0,0,0,0,0,1,c:8251,0,0,1,1,0,0,3.062481742,1,closed
1153,CA,42.08868189,-119.9406363,93105,c:9772,Menlo Park,,Taggstr,1,01-01-1997,,3/22/2005,4/20/2010,0.461930183,1.044264048,,,0,1,11000,1,CA,0,0,0,0,1,mobile,0,0,0,0,0,0,0,0,0,0,c:14656,1,0,0,0,0,0,2.571084192,1,closed
956,OH,42.03272971,-71.11929379,30097,c:44616,Sunnyvale,La Jolla CA 92037,FlowCardia,0,01-01-2000,,08-01-2007,8/25/2008,1.16420297,5.807845953,4.007576997,,0,1,2976129,1,CA,0,0,0,0,0,advertising,0,1,0,0,0,0,0,0,0,1,c:42062,1,0,1,0,0,0,5.955368516,1,closed
1069,WA,37.61480313,-122.0396983,94087,c:2178,Columbia,,Appature,0,01-01-2005,07-01-2013,12-01-2002,03-07-2011,1.149726489,5.282808161,0.457085542,2.966345264,1,2,46713720,0,TX,1,0,0,0,1,social,0,0,0,0,0,0,0,0,0,1,c:167,1,1,0,1,0,0,3.457230409,0,closed
563,FL,34.65272633,-71.14933073,92660,c:80433,Bingham Farms,Irvine CA 92618,Resonant Vibes,1,8/29/2007,01-01-2011,12-07-2004,4/21/2010,0.592576827,0.577215155,5.276191642,4.6993602,1,1,8658054,1,IL,0,0,0,0,0,messaging,0,0,0,1,0,0,0,0,0,0,c:7345,1,0,1,1,0,0,2.049810945,1,acquired
816,CA,35.21194968,-121.5120973,94043,c:10153,New York,,Hitpost,0,01-01-2000,,01-01-2007,01-01-2006,1.374920307,2.293882572,3.375333178,3.364209892,0,1,52880382,0,CA,1,0,0,0,1,advertising,0,0,0,0,0,0,0,0,0,1,c:155621,0,0,1,1,0,0,2.991357894,1,closed
925,CA,44.48056509,-120.5585577,90211,c:11888,San Francisco,San Francisco CA 94105,Pocket Communications Northeast,0,01-01-2004,,01-01-2008,10-05-2011,1.127089393,10.53369824,2.262832823,4.296081567,0,2,1220590,3,CA,0,0,1,0,0,web,0,0,0,0,0,0,0,0,0,1,c:16145,0,0,1,1,0,0,1,1,acquired
1153,CA,38.23476145,-120.1114839,4095,c:24040,San Francisco,San Francisco CA 94108,Virident Systems,0,11-01-2008,,01-01-2007,01-10-2007,1.665633714,1.462938305,2.906340943,4.801046904,0,2,11000,0,CA,0,0,0,0,0,biotech,0,0,0,0,0,0,0,0,0,1,c:60186,1,0,0,1,0,0,3.185548854,1,closed
769,OH,42.55082726,-74.38832913,20007,c:150658,Cincinnati,Boston MA 2109,BridgePort Networks,0,8/18/2004,9/22/2012,12/26/2007,12/28/2009,1.873102624,6.976997505,3.381669378,6.716492474,0,2,7057001,2,NY,0,0,0,0,1,biotech,0,0,0,0,0,0,0,0,0,0,c:42610,1,0,1,0,1,0,3.68783373,0,acquired
95,VA,39.65542831,-120.0796118,94566,c:60580,North Reading,Santa Monica CA 90401,Viewdle,1,06-01-2008,08-01-2009,10-03-2007,5/22/2006,1.038339813,4.620090773,3.943743847,,5,5,8067995,4,MO,1,1,0,0,0,web,1,0,0,0,1,0,0,0,0,1,c:21762,0,1,0,1,1,1,1,1,closed
671,CA,43.19825015,-66.41325082,94103,c:1088,Mountain View,,Transpond,1,02-01-2010,,01-01-2005,05-03-2010,1.611122655,1.367775058,,2.83768007,0,1,10448372,2,CA,0,0,0,0,0,software,1,0,0,0,0,0,0,0,0,0,c:25510,0,0,1,1,0,0,3.798704872,0,closed
478,CA,41.75386653,-120.9666043,94041,c:1595,Raleigh,,Crowd Factory,0,01-01-2003,,12-11-2011,01-01-2006,1.1536621,3.045753592,,4.981317708,0,1,4291655,1,CA,1,0,0,0,0,security,0,0,0,0,0,0,0,0,0,1,c:1043,1,0,1,1,0,0,1.050436834,1,closed
1061,VA,37.64356343,-120.1482647,94404,c:1111,Henderson,,Athena Design Systems,1,01-01-2000,,09-01-2009,01-01-2004,2.886455897,1.535297036,,4.855975692,0,3,1121970,5,CA,0,0,0,0,0,advertising,0,0,0,0,0,0,0,1,0,1,c:11042,0,0,0,1,0,0,2.883531512,0,closed
509,OH,50.07964057,-120.6008723,98665,c:51021,Brooklyn,Salt Lake City UT 84124,Color Labs Inc.,0,10-01-2009,06-01-2013,03-01-2006,10-04-2012,1.053357052,1.501934251,3.061451658,3.117939243,0,2,11000,3,PA,0,0,0,0,0,search,0,0,0,0,0,0,0,0,0,1,c:5801,1,0,0,1,0,0,1.042739276,0,acquired
974,VA,42.27622697,-119.7695329,94103,c:18470,Boulder,San Francisco CA 94105,Tumblr,1,1/20/2006,,05-08-2007,07-01-2012,4.589642517,7.6190755,4.751695566,5.327755859,0,1,13689397,1,CA,0,0,0,0,0,web,0,0,0,1,0,0,0,0,0,0,c:31549,0,1,1,0,0,0,1.631600794,1,acquired
232,TX,37.52532437,-121.5755283,44131,c:18470,San Francisco,Santa Clara CA 95051,Tipping Bucket,1,02-02-2006,01-04-2012,7/15/2008,06-01-2010,0.847093556,4.424582036,-0.000453695,2.899473911,2,3,13783199,4,MN,1,0,1,0,1,advertising,1,1,0,1,0,0,0,0,0,1,c:42672,0,0,0,1,0,0,1,0,closed
782,MA,35.62453588,-66.43318278,90015,c:459,Mountain View,,SNAPin Software,1,01-01-2003,,6/15/2010,08-01-2008,5.396196548,3.988984258,2.862727248,4.935312229,0,2,6458905,3,NY,0,0,1,0,0,games_video,1,0,0,0,0,0,0,0,0,1,c:49341,1,0,0,1,0,0,3.522555647,1,acquired
644,TX,49.20883069,-69.31015332,94105,c:6592,Idaho Falls,,iosil Energy,0,2/14/2005,,08-01-2007,10/21/2010,4.69503457,4.534343546,4.79002743,,0,2,16530873,2,NY,1,0,0,0,0,network_hosting,1,1,0,0,0,0,0,0,0,0,c:39399,0,0,0,0,0,0,6.568583319,1,acquired
713,CA,30.96780628,-120.6945476,95131,c:173118,Sunnnyvale,Seattle WA 98109,Heartscape,0,7/26/2010,11-03-2012,10-01-2006,2/25/2007,0.248190242,8.308750072,0.660358561,9.04944171,0,1,11001786,2,IL,1,0,0,0,0,other,0,0,0,0,1,1,0,0,0,1,c:55044,1,0,1,0,0,0,4.945717453,1,closed
1009,CA,40.63493483,-70.59767108,CA 90245,c:28483,Pleasanton,Woburn MA 1801,Photobucket,1,03-01-2005,,3/20/2012,01-10-2012,8.380741556,8.551150745,1.191646062,1.587420127,9,2,9966940,1,VA,0,0,0,0,1,software,0,1,0,0,1,0,0,0,0,1,c:149809,0,1,1,0,0,0,1,1,acquired
584,MA,42.48795265,-72.22639827,78746,c:58133,New York,Petaluma CA 94954,rPath,1,05-03-2006,,6/22/2006,02-05-2010,2.119744429,4.787149699,0.927744872,5.186374959,2,1,14378987,2,CA,1,0,0,0,0,enterprise,0,0,0,0,0,0,0,0,0,1,c:26556,0,0,0,0,0,1,1.028054619,0,closed
608,CA,37.62376358,-94.03656525,10003,c:60436,Tampa,Mountain View CA 94041,Pacinian,0,01-01-2004,07-01-2013,11-11-2005,7/24/2009,1.136389899,6.943259504,,,1,3,14585539,0,GA,0,0,0,0,0,messaging,0,0,0,0,1,0,1,0,0,0,c:43416,1,0,1,0,1,0,2.17856025,0,acquired
837,OH,35.77687157,-69.84940391,10013,c:78759,Palo Alto,,Amalfi Semiconductor,0,01-01-2008,,3/28/2007,09-01-2007,1.206781915,5.498658483,,2.243485338,0,3,12758399,2,PA,0,0,0,0,0,web,1,0,1,0,0,0,0,0,0,0,c:68470,1,0,1,1,0,0,1,1,acquired
569,CA,42.47744719,-120.683728,94108,c:15652,Menlo Park,Addison TX 75001,SemiSouth Laboratories,1,01-01-2000,,3/22/2005,08-01-2010,1.115323141,6.367980368,1.849710855,3.496435116,0,2,11000,2,WA,0,0,0,0,1,hardware,0,0,0,0,0,0,0,0,0,1,c:45413,1,1,0,1,0,0,1,1,acquired
925,CA,42.78874465,-120.0342406,10010,c:9730,San Mateo,,Idooble,0,07-01-2007,,09-01-2008,3/30/2010,0.850672429,3.97049339,0.820570035,3.120223461,0,2,11000,1,CA,0,0,0,0,0,mobile,0,0,0,0,0,0,0,0,0,1,c:79456,1,0,1,1,0,0,1.529326094,1,closed
287,CA,38.18659842,-66.35829199,78701,c:78759,Santa Monica,,Newfield Design,0,01-01-2003,,07-05-2005,07-01-2008,2.340438779,4.437833639,-1.083379532,,0,1,11000,4,CA,1,0,0,0,1,software,0,0,0,0,0,0,0,0,0,1,c:167,0,1,0,1,0,0,1,1,acquired
260,CA,49.5368337,-119.4076975,75081,c:28114,Cambridge,,AdexLink,0,01-01-2000,,09-01-2008,06-01-2010,0.467500425,6.015990957,2.494119138,,0,2,11000,1,CA,0,0,0,0,1,web,0,0,0,0,0,0,0,0,0,0,c:26240,1,0,1,1,0,0,2.443849589,0,acquired
932,NV,33.48940751,-86.96785619,98005,c:1587,Mountain View,Framingham MA 1702,PlayerDuel,1,01-01-2000,06-01-2013,6/22/2006,02-06-2013,5.269661946,8.224541108,4.135311031,4.938209059,0,3,11041542,3,NH,1,0,0,0,0,ecommerce,0,0,1,0,0,0,0,0,0,1,c:9822,0,1,1,1,1,0,2.148740252,1,closed
270,CA,43.06051426,-68.46128838,20005,c:63731,San Mateo,,DanceJam,0,06-01-2005,,1/29/2012,02-03-2011,1.018201681,10.12541993,0.183849387,4.727287028,0,2,11000,0,CA,1,0,0,0,0,mobile,0,0,1,0,0,0,0,0,0,1,c:26666,1,0,1,1,0,0,3.627373927,1,closed
282,CA,37.69954987,-120.6298851,10003,c:17724,San Francisco,,nprogress,0,2/14/2005,,11/18/2005,08-02-2012,1.375337658,1.614038391,,11.70525387,0,2,51093018,0,CA,0,0,0,0,0,mobile,0,0,0,0,0,0,0,0,0,0,c:55421,1,0,1,1,0,0,3.723052463,0,closed
907,CA,37.7212552,-96.61441365,18106,c:20506,Beverly Hills,,Authenticlick,0,01-01-2005,,08-02-2010,8/19/2010,5.616939237,4.418826639,1.6907011,,0,5,11000,0,WA,0,0,0,0,0,mobile,0,0,0,0,0,0,0,0,0,0,c:1043,0,0,0,1,1,0,1,1,acquired
823,TX,37.63003293,-122.4075166,94110,c:5192,Cincinnati,,TrenStar,0,01-01-2010,12/31/2011,10/28/2009,11-05-2010,3.283771804,5.088879678,3.083281178,8.680740825,0,4,11000,0,PA,0,0,0,0,0,enterprise,0,0,1,0,1,0,0,0,0,0,c:60352,1,1,0,1,0,0,2.223205273,1,acquired
1045,CA,42.23623973,-118.005683,1752,c:84161,Dedham,,ClairMail,0,10-01-2006,,10-02-2010,4/19/2012,1.018367778,5.614407317,4.640057741,,3,2,24668094,1,NC,0,0,0,0,0,mobile,0,1,0,0,0,0,0,0,0,1,c:30820,1,0,1,0,0,0,3.848775617,1,closed
779,CA,37.64003826,-119.7474141,94043,c:934,San Francisco,,Rollstream,1,01-01-2003,,07-01-2005,02-01-2011,2.00404569,1.508369361,5.989406531,3.28853173,0,4,1534086,2,CA,0,0,0,0,0,web,0,0,0,0,0,0,0,0,0,1,c:148284,1,0,1,1,0,0,1.96759268,1,closed
1022,NY,34.46507424,-119.024263,10001,c:46893,Richardson,Oakland CA 94609,Mobius Microsystems,1,01-01-2006,06-01-2013,6/29/2007,4/21/2010,4.47875075,10.27130309,,1.897938036,0,2,10387478,2,CA,0,0,0,0,1,network_hosting,0,0,0,0,0,0,0,0,0,0,c:38721,1,0,1,1,1,0,2.275336563,0,closed
971,CA,37.70667911,-119.661841,94301,c:152560,Bellevue,Cincinnati OH 45202,ColdSpark,1,02-05-2013,,10/31/2008,2/27/2007,14.81952081,0.90878979,3.294461898,4.844859325,0,1,14375443,1,CA,1,0,0,0,1,software,0,1,1,0,0,0,0,0,0,0,c:42062,0,0,0,0,0,0,1.780744801,0,acquired
688,PA,37.67840609,-121.352157,90301,c:83176,Yardley,Austin TX 78701,Peanut Labs,0,08-01-2009,01-04-2010,1/20/2010,3/15/2010,1.125790174,2.275003192,,7.269943669,0,2,5306859,2,MA,0,0,0,0,0,biotech,0,1,1,0,0,0,0,0,0,1,c:75500,0,0,1,1,1,0,1,1,closed
935,CA,42.64641242,-117.6080349,94105,c:52694,San Francisco,,N2N Commerce,0,01-01-2008,,01-01-2006,11-01-2010,1.223593815,0.714053055,5.819098409,1.999181472,0,2,9562313,1,CA,1,0,0,0,1,mobile,0,0,0,0,1,0,0,0,0,0,c:1491,1,0,1,1,0,0,1,1,closed
1152,CA,38.10054012,-67.09622384,92121,c:42062,Mountain View,,Rollstream,1,01-01-2007,,07-01-2007,3/20/2012,2.238449604,1.736972232,,,0,2,4095215,1,CA,0,0,0,0,0,public_relations,0,0,0,0,0,0,0,0,0,0,c:1107,0,0,0,1,0,0,1.983558993,0,acquired
569,WA,41.48262155,-120.2985759,95128,c:155,Austin,Cambridge MA 2140,Stickybits,0,08-01-2007,,01-01-2009,7/16/2009,0.634855163,5.552915242,,2.81535162,6,2,25366733,1,NY,1,0,0,0,1,web,0,0,0,0,0,0,0,0,0,1,c:84867,0,0,1,0,0,0,3.228655571,1,closed
224,MA,35.60127207,-76.58501141,60647,c:19538,Santa Clara,,Trendslide,0,7/26/2010,07-01-2013,12-07-2005,10-10-2011,5.541235475,6.738958629,,,0,3,9913811,3,CA,0,0,0,0,0,software,0,0,0,0,0,0,0,0,0,1,c:1923,0,0,1,1,0,0,1.17144612,1,acquired
1006,CA,43.14740575,-117.8649559,10011,c:78868,Mountain View,,Ribbit,0,01-01-2005,,08-01-2010,8/26/2005,2.592078364,1.27051337,5.817442913,3.200312849,0,2,44127,1,CA,1,0,0,0,0,web,0,0,0,0,0,0,0,0,0,1,c:47341,1,0,1,1,0,0,6.712724587,1,acquired
746,CO,43.20524014,-120.4999121,85284,c:54077,San Francisco,,Wi-Chi,0,01-01-2004,,05-01-2006,05-01-2008,6.047967896,1.093515974,2.820476543,9.393978013,0,2,11000,1,GA,0,0,0,0,0,web,0,0,0,0,0,0,0,0,0,0,c:49341,1,0,1,1,0,0,1,1,acquired
1025,CA,37.47768902,-120.8007084,95054,c:1789,Los Angeles,,Oasys Mobile,0,01-01-2006,12-02-2011,10/17/2006,8/25/2010,1.379398563,2.934955756,3.188361534,2.518753617,1,2,3534504,1,TX,0,0,1,1,0,enterprise,0,0,0,0,0,0,0,0,0,0,c:70586,0,0,0,0,0,0,1.110028337,1,acquired
991,NY,37.60484395,-120.5402926,94306,c:26666,San Francisco,,Game Trust,0,01-01-2000,,11/15/2005,03-10-2009,0.48601827,2.201500754,-0.523017577,,0,2,615669,1,NY,1,0,0,0,0,security,0,0,0,0,0,0,0,0,0,1,c:4961,0,1,1,0,0,0,1.964778402,1,closed
965,PA,41.63096158,-122.03874,94107,c:148284,San Francisco,,Dispatch,0,01-01-2007,,12-07-2004,3/23/2011,0.682293344,1.115816491,,3.092612542,0,1,10272468,0,WA,0,0,0,0,1,enterprise,0,0,0,0,0,0,0,0,0,1,c:4453,1,0,0,0,0,0,1.938489096,0,acquired
460,NY,42.21414896,-94.08994067,60143,c:46835,Denver,Brooklyn NY 11217,Oodle,0,07-07-2007,05-01-2013,06-09-2005,7/27/2010,2.289438295,4.197894248,3.03286595,2.734087723,7,2,12700349,1,MI,0,0,0,0,0,social,0,0,0,0,1,0,0,0,0,0,c:27555,1,1,1,0,0,0,3.815912376,1,closed
530,MD,40.89087582,-75.88844672,10001,c:23788,Carlsbad,Lake Oswego OR 97035,ExactTarget,0,05-01-2006,01-01-2012,1/29/2007,3/15/2010,5.437160862,3.746799973,1.013345966,2.534825471,12,4,286408573,2,NY,1,0,1,0,1,mobile,0,0,0,0,0,0,0,0,0,0,c:25827,1,0,0,1,0,0,1.028619219,1,closed
995,GA,42.4739174,-122.6891938,1719,c:58998,Woburn,Cambridge MA 2140,CHiL Semiconductor,0,01-01-2007,01-01-2012,01-05-2007,12/15/2009,1.638129276,1.799901907,4.646718842,4.967965084,1,1,2369735,1,CA,1,0,0,0,0,advertising,0,0,0,0,0,0,0,0,0,1,c:42672,1,0,0,1,1,0,4.288302497,0,acquired
854,CA,37.75416621,-120.5808748,30309,c:19861,Sunnyvale,,Layer 7 Technologies,0,01-01-2004,,11-01-2010,5/29/2008,0.665731412,3.343556224,2.735001747,5.213550462,0,2,11000,1,CA,0,0,0,0,0,games_video,0,0,0,0,0,0,0,0,0,0,c:1899,1,0,1,0,0,0,1.75692997,1,acquired
184,NY,33.67866911,-86.4521309,95054,c:10610,Austin,,Intela,1,10-11-2004,,3/24/2011,02-01-2008,3.925167907,3.141487849,3.445102729,4.734572138,0,1,6658826,2,GA,0,0,0,0,1,mobile,0,0,0,1,0,0,0,0,0,1,c:58699,1,0,1,0,0,0,2.029846574,1,closed
956,CA,43.0584325,-118.5495008,30309,c:10153,New York,,Pixelpipe,0,01-01-2007,,08-01-2010,11/25/2008,0.770739972,1.81056476,4.777749688,5.043403263,0,2,9342425,3,CA,0,0,0,0,0,web,0,0,0,0,0,0,0,0,0,1,c:47341,1,0,1,1,0,0,1.982371821,1,acquired
330,GA,35.12492711,-121.5455544,98011,c:49815,Lisle,Seattle WA 98109,StyleFeeder,0,07-01-2008,02-01-2012,11/24/2009,3/22/2005,5.324537781,0.52050981,3.200288754,4.896933841,3,1,3334730,2,TX,0,0,0,0,0,biotech,0,1,0,1,0,0,0,0,0,0,c:14656,1,0,1,1,0,0,4.336482923,0,acquired
1047,CA,35.51310336,-74.5683484,1810,c:46893,Fremont,Santa Ana CA 92705,Reliant Technologies,0,01-01-2006,3/20/2009,1/28/2009,2/18/2010,1.149770473,5.418581782,6.694161775,4.879520558,0,2,11284580,4,GA,0,0,0,0,0,software,0,0,0,0,0,0,0,0,0,1,c:43948,0,0,0,0,0,1,1.88204718,0,acquired
1054,CA,42.39306069,-70.74692182,94107,c:934,Sunnyvale,,Mobius Microsystems,0,01-01-2006,,11/15/2005,01-01-2008,2.800160818,5.284427718,3.942909109,5.87866195,0,1,9312643,2,CA,0,0,0,0,0,software,0,0,0,0,0,0,0,0,0,0,c:79089,1,0,1,1,0,0,1.254574683,0,acquired
991,NY,41.49193294,-122.0263116,91105,c:80259,Columbus,Los Angeles CA 90032,Open Kernel Labs,1,01-01-2007,,06-01-2006,3/15/2010,0.844192463,8.719213185,6.202770618,,0,2,10135427,0,CA,0,0,0,0,1,ecommerce,0,0,0,0,0,0,0,0,0,1,c:3027,0,0,0,1,0,0,2.107928729,1,acquired
93,WA,37.81509452,-90.97985769,1803,c:155821,New York,Woburn MA 1801,eBillme,0,01-01-2003,,10/17/2005,8/19/2013,0.951232152,3.072147136,,2.867428427,0,1,11000,3,CA,1,0,1,0,0,software,0,0,0,0,0,0,0,0,0,0,c:130,0,0,0,1,0,0,3.81103612,1,acquired
172,CA,34.80798362,-94.80480834,80302,c:37173,Boston,Addison TX 75001,SinglePlatform,1,5/15/2005,,11-01-2008,12-11-2011,1.080271127,4.27072691,2.914124178,,0,2,7118388,3,KY,1,0,0,0,1,web,0,1,0,0,1,0,0,0,0,0,c:58699,1,0,1,0,1,0,1,1,closed
1153,CA,49.95199906,-118.8103729,10017,c:23335,San Francisco,Austin TX 78701,Exclusively.in,0,01-01-2009,,04-01-2009,11/19/2010,4.445434048,5.679899075,0.363811013,5.065581362,7,1,11000,1,CA,0,0,0,0,0,biotech,0,0,0,0,0,0,0,0,0,0,c:17660,0,0,1,1,1,0,1,1,acquired
711,OH,36.3476996,-119.2503383,30309,c:637,Mountain View,,Loudcaster,0,01-01-2002,,06-01-2007,03-07-2011,0.691727801,4.265543601,3.650214836,4.552814403,0,2,11000,1,CA,1,0,0,0,0,mobile,1,0,0,0,0,0,0,0,0,1,c:437,0,0,1,1,0,0,1.959249311,0,acquired
260,TX,41.51859185,-122.0439249,1752,c:38095,Boulder,Red Bank NJ 7701,WildBlue,0,03-01-2009,,01-01-2012,04-07-2010,0.5254083,5.908420222,4.886477392,4.685839932,0,1,10311552,1,KY,0,0,0,0,0,search,0,0,0,0,0,0,0,0,0,1,c:51023,0,0,1,1,0,1,1.946363232,1,closed
1092,KY,41.8738621,-122.7569561,95128,c:11438,Los Gatos,Mountain View CA 94043,Help Me Rent Magazine,0,01-01-2003,,10-05-2011,11/24/2009,10.45520828,5.428400415,4.828186061,4.660517105,1,1,17293309,3,VA,0,0,0,1,0,enterprise,0,0,0,0,0,0,0,0,0,1,c:37215,1,0,0,0,1,0,2.617467538,1,closed
172,AZ,42.65120158,-92.63269875,55416,c:39364,Chicago,,Livemocha,0,01-01-2002,2/21/2012,11-11-2005,1/13/2010,1.07736062,5.134226294,2.898662494,,0,6,3896676,4,CA,1,0,0,0,0,web,1,0,0,0,0,0,0,0,0,0,c:51969,1,0,1,1,0,0,5.116464202,1,acquired
410,CA,33.77907294,-121.1671931,19104,c:1895,Arcadia,Foster City CA 94404,LeisureLogix,1,08-01-2007,7/25/2008,10-10-2005,03-10-2009,7.881294186,3.920648982,3.066785545,4.994465183,5,2,98403945,1,MI,1,0,1,0,1,biotech,0,0,0,1,1,0,0,0,0,1,c:25001,1,0,0,0,0,1,4.3875628,0,closed
655,CA,33.89928923,-90.42821003,75244,c:167795,Mountain View,New Hope PA 18938,Danotek Motion Technologies,1,06-01-2006,01-01-2012,5/15/2008,9/16/2008,3.414045811,4.00409636,3.8846785,4.442233706,2,1,7630899,2,WA,1,0,0,0,0,search,0,0,1,0,0,0,0,0,0,1,c:17219,0,0,0,1,0,0,8.707532822,0,closed
618,CA,37.69215076,-119.1399731,1752,c:12348,Rye Brook,Westford MA 1886,Flowgram,0,07-01-2010,7/25/2012,3/24/2011,09-01-2007,1.126121332,5.871957793,4.556261759,3.998959955,1,2,11000,1,CA,0,0,0,0,0,mobile,0,0,1,0,0,0,0,0,0,1,c:39364,1,1,0,1,0,0,1.740839393,1,acquired
101,CA,47.05240756,-78.6545184,10003,c:83176,Cupertino,,Lazarus Therapeutics,0,01-01-2006,,1/24/2006,01-07-2010,0.808036756,2.28793006,1.740676044,1.991662614,0,1,11540054,0,MA,0,0,0,0,0,web,0,0,0,0,0,0,0,0,0,1,c:43162,0,0,0,1,0,0,1,1,acquired
339,GA,34.20353961,-120.6983544,2451,c:45413,New York,Boxborough MA 1719,AlterPoint,1,11/15/2011,07-01-2013,10/21/2010,1/29/2013,2.871232336,4.10244038,3.250731473,5.148381921,4,1,10464516,1,NY,1,0,0,0,0,web,0,0,0,0,0,0,1,0,0,1,c:144,1,0,1,0,0,0,4.144016042,1,acquired
142,NY,34.35092521,-74.44849344,6103,c:61592,Nashville,San Mateo CA 94401,NSFW Corporation,0,04-01-2010,3/28/2010,11-01-2006,10-01-2006,1.364782989,0.210465892,3.073269758,,2,2,3743960,2,PA,0,0,0,0,0,public_relations,0,1,0,0,0,0,0,0,0,0,c:63053,1,0,1,0,0,0,1.141560367,0,acquired
678,CA,42.07428577,-120.8947611,92705,c:13277,Tempe,Brisbane CA 94005,Lazarus Therapeutics,0,1/15/2007,9/15/2010,04-01-2009,1/29/2007,0.867764216,2.189860093,4.499171782,6.522634078,0,1,968849,2,VA,1,0,0,0,0,software,1,0,0,0,0,0,0,0,0,1,c:26556,0,0,1,1,0,0,2.904330371,1,acquired
359,MA,42.83504901,-121.8672096,94043,c:1957,San Francisco,,Inhale Digital,0,01-01-2001,,09-01-2006,01-06-2005,2.244020697,3.832072051,0.762064964,3.699863246,0,2,12010842,1,CA,0,0,0,0,0,mobile,0,0,0,0,0,0,0,0,0,0,c:46943,1,0,0,1,0,0,1,1,closed
1040,CA,40.40649124,-119.1339643,01862-2000,c:51623,Menlo Park,,Geni,0,01-01-2011,,07-07-2010,03-01-2009,1.094269182,6.509361223,3.21110611,5.20346056,0,1,11000,0,CA,0,0,0,0,0,advertising,0,0,0,1,0,0,0,0,0,1,c:40782,1,0,0,1,0,0,3.938462466,1,acquired
1058,CA,42.77939454,-83.70144513,30305,c:43386,San Francisco,,AkaRx,0,01-01-2000,,09-01-2008,04-01-2006,0.507856103,5.231218365,-1.416780845,4.549763702,0,2,35540119,2,CO,0,0,0,0,0,software,0,0,0,0,0,0,0,0,0,1,c:25383,1,1,0,0,0,0,1,1,closed
681,CA,35.57461474,-119.6175626,60188,c:26240,San Francisco,,RippleFunction,0,01-01-2008,,10/23/2006,11/19/2010,4.960571406,10.11546048,3.169820622,3.176948508,0,2,8066779,0,CA,0,0,0,0,0,enterprise,0,0,1,0,0,0,0,0,0,0,c:61783,0,0,1,0,0,0,1,0,closed
930,NV,31.51898221,-118.8099164,55311,c:134,Hartford,Mountain View CA 94043,Giiv,1,10-04-2010,10/30/2013,9/30/2009,10-05-2009,1.138545498,8.783039253,3.177226971,4.512078809,6,2,7654156,3,IN,1,0,0,0,1,web,0,1,0,0,0,0,0,0,0,0,c:3686,1,0,0,0,0,0,4.494950454,1,closed
885,CA,41.99262362,-86.29205817,94022,c:16618,Palo Alto,,BlueNote Networks,0,01-01-2001,,01-01-2007,4/20/2010,1.035699648,1.846845418,,1.916790362,2,2,4305028,1,WA,0,0,1,0,0,mobile,0,0,0,0,0,0,0,0,0,0,c:4453,0,0,1,1,0,0,4.349635313,1,closed
884,NJ,37.94084434,-74.24017374,33626,c:3193,New York,New York NY 10011,Servio,0,01-01-2001,,8/31/2010,12-10-2010,13.49539636,3.618948777,2.037724045,2.561264575,0,1,450095,2,CA,0,0,0,0,0,enterprise,1,0,0,0,0,0,0,0,0,0,c:513,1,0,1,0,0,0,7.737273264,0,acquired
568,CA,42.96798493,-120.0468947,30009,c:36310,Palo Alto,,XtremIO,1,01-01-2002,,05-01-2005,08-08-2005,4.769833914,3.777192027,-0.134984479,3.263493036,0,2,11000,4,CA,0,0,0,0,1,software,0,0,0,0,0,0,0,0,0,1,c:36892,0,0,1,1,0,0,2.400146149,1,acquired
793,KY,38.01180819,-74.41505895,63043,c:5587,New York,San Francisco CA 94111,TrustDegrees,1,7/27/2009,03-04-2012,07-10-2006,2/17/2009,1.264919412,4.133188155,5.559076373,2.06486988,0,2,11781352,1,CA,0,0,0,0,0,advertising,0,0,0,0,0,0,0,0,0,1,c:25325,1,1,1,1,0,0,6.40064748,1,acquired
737,IL,41.69100161,-120.4927192,94107,c:1284,Boxborough,La Jolla CA 92037,EdgeCast Networks,0,01-01-2002,,7/16/2010,02-04-2009,0.492285953,1.889009715,7.378603627,6.421495705,0,1,14334812,3,NY,1,0,0,0,0,games_video,0,0,0,0,0,0,0,0,0,0,c:2497,1,0,0,1,0,0,3.421866272,1,acquired
787,VA,37.7008966,-120.9107714,85281,c:202,Kearneysville,Alameda CA 94501,Crashlytics,1,01-01-1999,08-01-2013,08-01-2010,03-01-2011,5.376384225,2.142252253,3.924553501,8.315494944,0,1,18908101,1,CA,0,0,0,0,0,network_hosting,1,0,0,0,0,0,0,0,0,1,c:48376,0,0,1,0,0,0,2.301736382,1,acquired
642,MD,34.49399702,-120.3316381,90069,c:11397,Nashua,La Jolla CA 92037,Snapette,0,01-01-2000,,01-01-2009,08-09-2005,4.582448202,7.159054761,2.614876927,2.651170936,0,2,13248909,2,GA,0,0,0,0,1,analytics,0,0,0,0,0,0,0,0,0,1,c:36920,1,0,0,0,0,1,1.83021453,1,closed
1101,CA,34.18990839,-93.04470582,60654,c:741,San Francisco,,Onavo,0,01-01-2000,,01-01-2008,12-01-2008,0.992043588,8.257843365,6.51779396,8.45918935,0,3,14320070,1,TX,0,0,0,0,0,other,0,0,0,0,0,0,0,0,0,1,c:35903,0,0,1,1,0,0,4.360516725,1,acquired
856,WA,41.98069859,-120.7713228,89052,c:36310,Idaho Falls,,CoTweet,1,09-01-2006,4/26/2012,1/21/2010,8/23/2008,6.181597563,1.157024983,,4.68240987,3,1,5718025,3,WA,1,1,1,0,0,cleantech,0,0,1,0,0,0,0,0,0,0,c:45525,1,0,0,1,1,0,4.703286023,1,closed
165,CA,34.53129904,-75.21038982,27518,c:1078,SPOKANE,Washington DC 20009,Livemocha,0,08-01-2011,8/27/2009,03-01-2007,03-01-2006,10.70078467,8.551081168,2.888699157,1.6863397,2,1,161595744,4,CO,1,0,0,0,0,web,0,0,0,0,0,0,0,0,0,0,c:28424,0,0,1,1,0,0,5.156576491,1,acquired
213,NY,32.83972687,-120.3499725,11217,c:17633,Evanston,Rye Brook NY 10573,drop.io,1,4/22/2005,8/20/2013,02-01-2007,8/20/2010,0.340802909,4.694019279,-0.351501135,1.96312994,1,1,15606762,2,CA,0,0,1,0,0,automotive,1,0,1,0,0,0,0,0,0,0,c:78759,0,0,0,1,0,0,4.224352759,1,closed
1011,CA,41.45751422,-79.69507823,21401,c:55044,Santa Monica,,StyleTrek,0,01-01-2005,07-01-2013,02-01-2006,8/31/2006,0.926735065,1.45253665,2.823243733,2.042523365,3,2,11000,0,MA,0,0,0,0,1,network_hosting,0,1,0,0,0,0,0,0,0,0,c:35903,1,0,0,0,0,0,1.983458767,1,acquired
963,WA,32.57820372,-98.98602823,2139,c:41006,New York City,,Optimal,1,01-01-1998,06-08-2012,6/15/2011,10/28/2007,0.511362959,5.821435388,,4.081306719,0,2,6891932,4,IN,0,0,0,0,0,advertising,0,0,1,0,0,0,0,0,0,0,c:138030,0,1,1,0,1,0,1.141278524,1,acquired
851,CA,34.00155782,-119.479676,94402,c:150577,Boston,,Yub,1,09-01-2010,,8/21/2007,01-01-2008,2.319071038,1.569264261,,4.433244106,0,1,4691266,1,CA,1,0,0,0,1,software,0,0,0,0,0,0,0,0,0,1,c:20506,0,0,1,1,0,0,1.536772854,0,closed
809,CA,42.39319036,-121.4127174,10010,c:23139,Woburn,,EdgeSpring,1,01-01-2010,11-05-2012,12-01-2011,11/24/2009,2.32883534,4.38949626,6.628571412,5.135143889,0,1,26116568,1,CO,0,0,0,0,0,enterprise,1,0,0,0,0,0,0,0,0,1,c:2033,0,0,1,0,1,0,2.042450513,1,acquired
231,CO,41.10144128,-119.1270687,90024,c:14028,Pittsboro,,NationalField,1,01-01-2001,,02-01-2005,01-01-2008,0.802090798,1.338788664,,3.584006517,0,3,1373501,2,NY,0,0,0,0,1,advertising,0,0,0,0,0,0,0,0,0,1,c:16593,0,0,0,1,0,0,4.674972984,0,acquired
1023,CA,41.60693559,-96.10358781,1887,c:48640,Englewood,San Diego CA 92121,Flud,0,06-01-2009,4/17/2009,08-01-2006,4/20/2011,2.321595295,0.522921447,2.833788294,4.674814994,3,2,41232431,1,GA,0,0,0,0,1,ecommerce,0,0,0,0,0,0,0,0,0,0,c:6313,0,0,1,1,0,0,2.131892124,1,closed
290,NH,34.57492185,-119.3197676,10004,c:43188,Durham,,SNAPin Software,0,01-01-2001,4/26/2012,9/19/2011,02-02-2009,2.934143993,1.326863448,3.147466455,2.526957313,0,1,19979677,2,VA,1,0,0,0,1,ecommerce,1,0,0,0,0,0,0,0,0,1,c:40324,0,0,1,0,0,0,1,0,acquired
584,MA,33.10303403,-121.0725254,94063,c:10610,Lake Oswego,SPOKANE WA 99202,Oyster.com,1,01-01-1984,05-04-2009,08-08-2005,05-01-2010,2.167787385,7.469587324,7.311077399,1.962715839,10,2,72037548,1,NY,1,0,0,0,1,web,0,0,0,0,0,0,0,0,0,1,c:69834,0,0,1,0,0,0,2.657922823,0,acquired
963,CA,41.94408871,-122.1445616,10013,c:148566,Palo Alto,,GeekStatus,1,01-01-2000,,08-01-2007,4/26/2012,0.578547245,1.361711629,2.633817406,4.828908699,0,2,9887627,3,NY,0,0,0,0,0,software,0,0,0,0,0,0,0,0,0,0,c:28482,0,0,1,1,0,0,2.127786391,1,acquired
800,VA,37.3359625,-96.54677714,10004,c:16189,Broomfield,Maynard MA 1754,FastSoft,0,11-01-2003,08-01-2013,2/27/2007,8/31/2010,4.273007786,1.395944417,4.184126212,6.489022926,0,1,19324630,0,PA,0,0,0,0,0,advertising,0,0,0,0,0,0,0,0,0,0,c:17282,0,1,0,1,0,0,2.151678404,1,closed
494,CA,37.73773619,-121.7722498,10012,c:21762,Nashville,Portland OR 97201,Buysight,0,01-01-2005,,12-01-2006,12/29/2009,1.13972819,1.346526699,3.149917863,7.774094699,1,1,18481434,1,CA,0,0,0,0,0,enterprise,1,0,0,0,0,0,0,0,0,1,c:27741,0,1,0,0,0,0,1.213535099,1,closed
1091,CA,48.61830534,-71.75532957,94063-2026,c:12052,Sunnyvale,,Hatteras Networks,1,01-01-2000,10-01-2009,06-01-2005,01-01-2006,1.200592083,1.46749058,0.636533489,,0,2,618763,0,CA,0,0,0,0,0,mobile,0,0,0,0,0,0,0,0,0,0,c:43915,1,0,1,1,0,0,1.059586649,1,closed
910,WA,35.18125423,-118.0752129,10012,c:45413,Menlo Park,,Teknovus,0,07-01-2008,,02-07-2008,05-04-2010,0.988022191,1.471657032,,5.185829434,0,1,11376576,1,CO,0,0,0,0,1,web,0,0,0,1,0,0,1,0,0,1,c:23072,1,0,0,1,0,0,1.79779609,1,acquired
852,VA,37.8399705,-93.60716622,80302,c:34545,Bingham Farms,Mountain View CA 94043,Hidden City Games,0,09-01-2005,09-01-2010,8/22/2005,2/18/2013,0.930800557,17.14525688,3.213069875,,5,2,11000,2,NY,1,0,1,0,0,web,1,1,0,0,1,0,1,0,0,0,c:43188,1,1,1,0,0,0,3.333103296,1,closed
746,GA,40.07959533,-119.8560397,10013,c:5585,New York,,WeShow,0,01-01-2000,,07-01-2009,02-03-2011,15.98596931,9.021001363,-0.756038429,4.708385827,0,2,11000,3,CA,0,0,0,0,1,software,0,0,0,0,0,0,0,0,0,1,c:58699,0,1,1,1,0,0,1.000443391,0,closed
600,CA,42.35131379,-122.3434044,98104,c:54465,Redmond,,Dilithium Networks,0,10-01-2008,06-01-2013,05-01-2006,1/24/2012,1.18985038,3.95101395,1.218113218,6.99024038,3,1,2849472,1,NY,0,0,0,0,0,security,0,0,0,0,0,1,0,0,0,0,c:35236,1,0,0,0,0,0,2.629693282,0,acquired
419,WA,34.14724158,-121.8347806,94041,c:19538,Memphis,Austin TX 78701,Factery,0,01-01-2005,06-04-2012,9/21/2009,6/28/2005,3.498520255,1.878349619,2.92762436,2.218887459,0,5,11000,2,CO,1,0,0,0,0,web,1,0,0,0,0,0,0,0,0,0,c:15687,0,0,1,1,0,0,1.638392057,1,acquired
1057,CA,48.30256528,-119.6668953,94903,c:30820,Mountain View,,Trendslide,0,01-01-2005,,02-01-2007,10-05-2010,1.509769533,8.646564972,3.386261517,1.563033272,0,4,11000,1,CA,0,0,0,0,0,software,0,0,0,0,0,0,0,0,0,0,c:59187,0,0,1,1,0,0,1,1,closed
479,TX,41.712119,-122.0683681,60143,c:35148,Timonium,Berkeley CA 94704,MOG,0,11/15/2011,,12/20/2002,12/13/2007,0.460199177,1.535663534,-0.026772913,,0,1,3530437,3,VA,0,0,0,0,0,web,1,0,0,0,0,0,0,0,0,0,c:23139,0,1,0,1,0,0,3.216361359,1,acquired
170,CA,35.07406734,-122.1526353,85284,c:1111,Cincinnati,West Newfield ME 4095,Azuro,0,10-01-2006,01-01-2013,3/18/2012,07-12-2011,0.432756107,7.285243828,,2.621160513,0,6,12759393,0,VA,1,0,0,0,1,security,0,0,0,1,0,0,0,0,0,1,c:22168,0,1,1,1,0,0,1.128096807,1,acquired
1061,CA,37.42163168,-120.5093135,94104,c:52378,Tampa,,Home-Account,0,08-01-2010,,10-03-2005,09-03-2010,5.292558618,16.0454428,0.955383136,4.393902804,0,1,12167706,1,IL,0,0,1,0,1,web,0,0,0,0,0,0,0,0,0,0,c:3080,0,1,0,1,1,0,1.945194919,0,closed
569,CA,33.45761537,-119.0555596,94107,c:885,San Jose,,Giiv,0,01-01-2001,,01-01-2005,12-01-2007,2.519002587,3.36542965,5.182874062,2.111255863,0,2,6158289,1,CA,1,0,0,0,0,other,1,0,0,0,0,0,0,0,0,1,c:130,0,0,1,0,1,0,5.570348727,1,acquired
1060,CA,32.8254791,-120.9850608,60654,c:1234,Tampa,,GetBack,0,04-01-2010,10/21/2009,02-11-2010,1/21/2006,6.081757689,1.775658402,0.713869725,1.872189199,1,3,5234047,3,CA,1,0,0,0,0,advertising,0,0,0,0,0,0,0,0,0,0,c:16784,0,0,1,1,0,0,1.761096775,1,closed
587,PA,31.31249222,-121.7593809,94087,c:61783,Richardson,Menlo Park CA 94025,VirtuOz,0,01-01-2013,12-02-2011,12-07-2004,6/21/2010,0.445021168,5.818181951,3.045392759,1.385481099,9,1,68931291,5,ID,1,0,1,0,1,web,1,1,0,0,0,0,0,0,0,1,c:10581,1,0,0,1,0,0,2.482621365,1,closed
173,CA,40.95772617,-91.89088879,75001,c:43875,Sunnyvale,,OneRiot,0,01-01-2005,,01-01-2007,1/15/2010,7.576953518,2.415160237,2.986462013,4.726341199,0,2,15277280,1,PA,1,0,0,0,0,social,0,0,0,0,0,0,0,0,0,1,c:43480,1,0,1,1,0,0,1.866093893,0,closed
669,CA,37.72467077,-119.569771,94086,c:76274,Newton,,Danotek Motion Technologies,1,09-01-2007,,03-01-2006,01-12-2011,1.156974828,2.012150864,,2.288598837,0,2,18401122,1,MA,0,0,1,0,1,enterprise,0,0,0,0,0,0,0,0,0,1,c:47341,1,1,1,1,0,0,1,0,closed
1012,CA,34.90026557,-85.87145147,10012,c:17070,Pleasanton,,Collective Intellect,0,01-01-2000,06-01-2013,11/19/2008,5/17/2013,0.257562477,1.351319035,3.164572293,,0,5,9225113,1,VA,1,0,0,0,0,network_hosting,1,0,1,1,0,0,0,0,0,1,c:41409,0,0,1,1,0,0,4.11861507,1,closed
1126,TX,42.04801833,-118.8391596,80538,c:65806,Portland,Portland OR 97201,Ecast,0,01-01-2005,,11/17/2005,8/27/2008,5.903685897,1.488659293,,,0,5,222620,3,VA,1,0,1,0,1,games_video,0,0,0,0,0,0,0,0,0,1,c:79089,1,0,0,0,0,0,1,1,acquired
973,MI,35.10808711,-120.9121246,94301,c:148566,Indianapolis,Chelmsford MA 1824,Home-Account,0,05-10-2005,8/24/2012,02-07-2011,5/26/2009,2.583404488,4.060884474,4.065937809,4.862557992,1,2,59977239,1,MA,0,0,1,0,1,finance,0,0,0,0,0,0,0,0,0,0,c:9822,0,0,0,1,0,0,2.010072295,0,acquired
316,WA,35.57197002,-119.074585,10012,c:26122,Cambridge,,SeeSaw Networks,1,08-01-2011,,06-01-2006,05-07-2008,1.625876051,2.51520287,4.182453433,2.318973142,0,2,11000,1,NY,0,0,0,0,1,enterprise,0,0,0,0,0,0,0,0,0,1,c:33198,0,1,0,1,0,0,3.954421323,0,closed
1119,CA,42.46559688,-73.730344,7652,c:60580,Tualatin,,Robotgalaxy,0,03-01-2009,,01-01-2007,3/17/2012,0.701032525,4.496980829,,4.860282752,1,2,12000041,2,MA,0,0,0,0,0,enterprise,0,0,0,1,0,0,0,0,0,1,c:38721,1,0,1,1,0,0,2.006296126,0,closed
600,CA,34.7990218,-120.6931768,1803,c:77139,Somerville,,NSFW Corporation,0,01-01-2004,,3/27/2008,3/25/2013,0.77545733,3.979022192,2.221660662,2.217606593,0,5,638094,1,TX,0,0,0,0,0,enterprise,0,1,0,0,0,0,0,0,0,1,c:21654,0,0,0,1,0,0,1.181144985,0,acquired
278,CA,41.81391723,-121.1813003,60555,c:42610,New York,Santa Monica CA 90404,Quidsi,0,02-01-2007,02-01-2011,6/19/2007,4/27/2012,0.641851381,1.576913996,2.484062969,5.143236796,0,4,11000,3,CA,0,0,0,1,1,news,0,1,0,0,0,0,0,0,0,1,c:83176,1,0,0,0,0,0,1.007607286,1,acquired
869,CA,40.37584783,-82.19194536,95014,c:81474,San Francisco,,Pure Networks,0,8/29/2007,,1/17/2010,12/21/2010,1.074770839,5.484340864,4.122874548,,2,1,13747927,3,NY,1,0,0,0,0,mobile,0,0,0,0,0,0,0,0,0,1,c:6049,1,0,1,0,1,0,1.840281441,0,closed
546,WA,37.56848256,-72.77670074,77380,c:43162,Los Altos,Santa Monica CA 90401,Summize,1,01-01-1996,02-01-2013,05-01-2008,1/13/2010,0.766715727,7.433671354,2.787094637,,5,5,37116777,1,MA,1,0,1,0,0,semiconductor,1,0,0,0,0,1,0,0,0,1,c:1627,0,1,0,1,0,0,1.859234296,1,closed
293,CA,37.76226231,-120.6427967,94111,c:61783,New York,,Helicomm,0,01-01-2010,01-01-2012,11-01-2010,6/21/2012,6.089194331,6.902404971,2.956867972,5.196317022,2,2,7986012,1,TX,1,1,1,0,1,network_hosting,0,0,1,0,0,0,0,0,0,1,c:280611,1,1,1,1,0,0,1.095911226,0,closed
718,CA,37.65985106,-119.6966038,90401,c:27,Allentown,,Carbonetworks,0,01-01-2004,,07-12-2011,03-01-2012,0.711024627,1.831554779,3.087918215,8.765109181,0,4,14293222,1,VA,0,0,0,0,1,biotech,0,0,0,0,0,0,0,0,0,1,c:41957,1,0,1,0,0,0,1.812778982,0,acquired
533,CA,41.04401242,-83.77171292,94110,c:41957,San Francisco,,rPath,1,06-01-2010,,2/26/2007,10/21/2010,2.430661402,1.869919813,,7.186683121,0,2,11000,3,CA,0,0,0,0,1,web,0,0,0,0,0,0,0,0,0,0,c:14483,1,0,0,1,1,0,1.09509183,1,acquired
275,IL,43.24345986,-71.11351519,38103-4717,c:43133,Los Angeles,San Francisco CA 94110,Loosecubes,0,01-01-2000,,09-01-2008,07-01-2007,1.601002577,1.415634115,2.752886005,8.263700777,0,1,11000,0,CA,0,0,0,0,1,mobile,0,0,0,0,0,0,0,0,0,0,c:25713,1,0,0,1,0,0,1.981273251,1,acquired
971,CA,37.8183323,-71.37066191,33327,c:282,Austin,,FlyCast,0,01-06-2005,02-01-2011,12-01-2009,10-02-2008,1.152673249,5.688511532,0.224734603,1.992696946,0,2,15349916,1,CA,0,0,0,0,0,network_hosting,0,0,0,0,0,0,0,0,0,0,c:25132,0,0,0,0,0,1,3.337161129,1,closed
663,NY,34.63984909,-122.0525765,10018,c:47341,Burlingame,,Sirific Wireless,0,01-01-2003,,09-01-2012,5/29/2011,0.905987572,0.786826864,5.014820399,2.734595688,0,1,38603207,1,CA,1,0,0,0,0,web,0,0,0,0,0,0,0,0,0,1,c:45611,0,0,0,1,0,0,1.201737495,1,acquired
1052,WA,37.77567047,-121.3075309,10004,c:38338,Woburn,Seattle WA 98101,Tatara Systems,0,01-01-2009,,05-01-2009,02-06-2013,1.866573903,6.571958552,5.64569262,4.914757444,0,6,12737931,0,NV,1,0,1,0,1,search,0,1,0,1,0,0,0,0,0,1,c:16070,0,0,1,1,0,0,2.179845627,1,closed
421,CA,37.97288388,-120.9229777,40507,c:1447,Waco,San Francisco CA 94107,Meebo,1,01-01-1995,,3/23/2011,12-08-2009,6.80732846,4.34279273,-0.089632053,3.05253844,0,2,3294888,2,NY,1,0,0,0,1,mobile,1,0,0,0,0,0,0,0,0,0,c:37215,1,1,0,0,0,0,1.012016066,1,acquired
652,MA,43.00368897,-90.6416444,80111,c:42062,New York,San Francisco CA 94111,Footnote,0,01-01-2008,,08-09-2005,8/29/2011,1.028583261,5.227917534,0.212823976,2.682571157,0,3,11000,0,IL,1,0,0,0,1,enterprise,1,0,0,0,0,0,0,0,0,1,c:57338,0,1,0,1,0,0,7.623070096,1,closed
901,OH,33.09483971,-90.16984011,1801,c:49876,Austin,,Defywire,0,01-01-2003,,01-03-2006,12/20/2007,1.275329513,1.084907662,,7.318512637,9,1,7869251,3,CA,0,0,0,0,0,web,1,0,0,0,0,0,0,0,0,1,c:18075,1,0,0,1,0,0,3.586595604,1,acquired
585,WA,41.13937509,-122.5430336,94043,c:33949,Bethesda,New York City NY 10018,CakeStyle,0,01-01-2011,,10/21/2010,12-01-2011,0.937581717,2.420865949,,4.251156835,2,1,9103110,0,MD,1,0,0,0,0,ecommerce,0,1,0,0,0,0,0,0,0,1,c:25307,0,0,1,1,1,1,3.864063307,1,acquired
726,CA,41.08772249,-92.97426347,2903,c:58018,Burlington,,Aveksa,0,01-01-2006,,02-01-2011,01-01-2011,6.715167416,3.173055759,2.839344847,4.415680243,0,3,11000,4,CA,1,0,1,0,1,advertising,0,0,0,0,0,0,0,0,0,1,c:13734,0,0,0,1,0,0,1,1,acquired
780,GA,34.26590588,-121.316101,94903,c:38460,San Francisco,San Francisco CA 94607,ServiceMesh,1,10-01-2005,03-01-2013,06-01-2005,6/26/2009,0.650143981,1.736959928,0.248117883,3.462685705,2,1,16425257,0,NJ,1,0,0,0,1,semiconductor,0,1,0,1,0,0,1,1,0,1,c:3505,0,0,1,0,0,0,4.460241855,0,closed
633,VA,37.98757554,-120.7865513,63043,c:37173,Playa Vista,,Plixi,0,01-01-2003,,5/20/2010,04-01-2006,3.677878891,2.140017062,1.781733599,,0,2,12981933,2,CA,0,0,0,0,0,software,0,0,0,1,0,0,0,0,0,0,c:162116,1,0,1,1,1,0,3.821614028,1,acquired
649,WA,37.56705659,-120.7508491,80112,c:6854,San Francisco,Chicago IL 60657,HauteLook,0,01-01-2005,,08-01-2011,02-08-2013,0.299559454,1.103242083,0.806306037,4.652377927,0,2,7123626,1,MA,1,0,0,0,0,cleantech,0,0,0,0,0,1,0,0,0,1,c:458,1,0,1,1,0,1,4.129918342,1,acquired
933,CA,37.98535313,-122.7569561,94043,c:1475,San Francisco,,Rollstream,0,01-01-2000,,08-02-2010,05-11-2010,2.034189667,2.426689699,5.467183107,2.221749763,0,2,3770888,1,CA,1,0,0,0,0,web,0,0,0,0,0,0,0,0,0,1,c:48640,0,0,1,1,0,0,1,1,acquired
1043,IL,37.67472311,-74.78908728,2116,c:835,Kirkland,,Applied Identity,0,01-01-2003,8/31/2010,5/18/2007,6/14/2012,2.204207199,5.074921122,2.851575725,,6,4,80941536,2,DC,1,0,1,0,1,biotech,0,0,0,1,1,0,0,0,0,1,c:6520,1,1,1,1,0,0,4.403661745,1,closed
348,VA,37.70308838,-103.348014,94105,c:37929,Louisville,San Diego CA 92121,DiJiPOP,1,01-01-2000,,3/28/2005,08-09-2005,1.140495084,1.769401959,,3.324808917,0,4,14625436,2,CA,0,0,0,0,0,security,1,0,0,0,0,0,0,0,0,1,c:934,1,1,1,0,0,0,2.3271639,1,acquired
1089,MA,42.76037649,-73.68596018,94043,c:37173,San Francisco,,QuikCycle,0,01-01-2002,,05-01-2010,4/14/2010,1.811319246,1.656146425,6.081470412,,0,2,11885584,1,CA,0,0,0,0,0,biotech,0,0,0,0,0,0,0,0,0,1,c:76102,0,0,1,1,0,0,1,0,closed
543,WA,34.14677828,-75.45999076,94087,c:16271,San Jose,Washington DC 20009,Syncplicity,0,01-01-2007,03-01-2010,1/20/2010,02-01-2010,0.975076947,1.595654427,0.438499954,4.921971847,5,2,16988630,2,NY,1,0,1,1,1,security,0,0,0,0,1,0,0,0,0,0,c:16134,0,0,1,1,0,0,2.62572127,0,closed
909,CA,42.69070378,-70.81774532,94107,c:3610,San Francisco,,NetDevices,0,01-01-2002,,11-01-2010,08-01-2010,0.907253664,1.235616993,-0.979240675,5.086672483,0,2,79345762,1,CA,0,0,0,0,0,web,0,0,0,0,0,0,0,0,0,1,c:334,1,0,0,1,0,0,3.118944075,1,closed
489,CA,37.73980895,-71.25963747,90064,c:67806,Burlington,,Luminary Micro,0,01-01-2001,,04-07-2010,7/13/2011,0.826985426,7.20970214,0.976441333,8.264576701,6,1,45943476,2,CA,0,0,0,0,1,web,0,0,0,0,0,0,0,0,0,1,c:17030,1,0,0,1,0,0,2.885581326,1,closed
724,WA,35.16208656,-119.3720444,91302,c:5192,San Jose,,Kolorific,0,01-01-2010,11/22/2010,03-01-2011,11-01-2009,5.86222603,1.31263681,1.72506796,4.67835525,0,2,11473960,1,NV,1,0,0,0,0,enterprise,0,0,0,0,0,0,0,0,0,1,c:25782,1,0,1,0,1,0,1,1,closed
717,CA,42.18243036,-119.6820996,94025,c:65806,San Francisco,,Kolorific,0,09-01-2008,,08-01-2005,07-08-2011,1.021409129,1.674578432,2.874737886,2.182653742,0,1,11000,0,CA,1,0,0,0,0,enterprise,0,0,0,0,0,0,0,0,0,0,c:58550,0,0,1,1,0,0,1,1,closed
747,CA,37.96374463,-119.8385499,33327,c:59709,Hartford,,Qwiki,0,01-01-2001,,7/15/2008,07-01-2009,6.225402921,1.386267794,2.928267712,,0,2,27467869,3,CA,1,0,0,0,1,web,0,0,0,0,0,0,0,0,0,1,c:150658,1,0,1,0,0,0,1.614669873,1,closed
583,CA,41.80183706,-118.3613899,95134,c:26114,San Francisco,Greenwood Village CO 80111,Viewdle,0,01-01-2000,01-01-2012,10/17/2005,9/23/2007,7.325491003,7.246174796,6.859748538,5.067050667,4,3,48572169,5,IL,0,0,0,0,0,semiconductor,1,1,0,0,0,0,0,0,0,1,c:44434,0,0,0,0,0,0,2.582024759,0,closed
782,CA,38.0444281,-118.1890021,94107,c:60580,Memphis,,BridgePort Networks,0,06-01-2005,,01-01-2005,4/23/2012,4.508021211,4.556214139,4.908389946,3.230322369,0,4,1014858,4,CA,0,0,0,0,1,public_relations,0,0,0,0,0,0,0,0,0,0,c:444,0,0,0,1,0,0,1.142737994,1,closed
953,TX,33.64017609,-118.8343312,94306,c:39507,San Diego,,Biofisica,1,01-01-2008,,12/13/2007,6/14/2012,1.351641795,4.339738984,-0.700270657,3.227311595,1,3,4073674,4,TX,0,0,0,0,0,software,0,0,0,0,0,0,0,0,0,1,c:9668,0,0,0,1,0,0,3.458848204,1,closed
711,CA,35.04308303,-119.6343916,2142,c:44976,San Francisco,Seattle WA 98109,MobileReactor,1,01-01-2001,,12/13/2010,3/24/2011,0.243743023,3.773371759,1.350276505,3.588183935,1,1,7879357,3,CA,0,0,0,0,1,biotech,0,0,0,0,0,0,0,0,0,0,c:31754,1,0,1,0,0,0,6.003468325,1,acquired
571,WA,47.8401467,-121.1125045,46204,c:10199,San Francisco,,Avega Systems,0,01-01-2003,,1/17/2010,01-01-2012,2.684314713,2.079978126,3.011823454,1.755003678,0,1,8790471,0,NY,0,0,1,0,0,security,0,0,1,0,0,1,0,0,0,0,c:158294,1,1,0,1,1,0,2.207838361,1,closed
1021,CA,47.95371941,-121.5195558,98104,c:13733,Seattle,,Enstratius,1,01-03-2000,,04-01-2007,10/25/2004,0.547071158,1.650094816,2.638753668,2.928841849,0,2,11000,0,CA,0,0,0,0,1,analytics,0,0,0,0,0,0,0,0,0,1,c:56568,1,0,0,1,0,0,2.8604596,1,closed
972,CA,34.40220834,-120.7755499,7701,c:10610,Chicago,Albuquerque NM 87102,Atrua Technologies,1,12-01-2006,06-01-2013,09-08-2005,11/14/2006,3.587506954,5.00795564,,4.697932431,1,2,10898737,3,VA,0,0,0,0,1,cleantech,0,0,0,0,1,0,0,0,0,1,c:58420,1,0,0,1,0,0,1.905056969,0,acquired
619,CA,41.993934,-121.6152559,78701,c:10153,Cincinnati,Wilmington MA 1887,Ecast,0,06-01-2005,,5/29/2008,05-01-2012,10.07498769,3.345907632,,,1,2,9955976,1,CA,0,0,0,0,1,games_video,1,0,0,0,0,0,0,0,0,1,c:5264,0,0,1,0,0,0,1.079000784,1,acquired
764,VA,33.44258662,-92.32785548,90094,c:17884,New York,Mountain View CA 94043-1107,Vontu,0,12-01-2006,08-06-2010,6/23/2010,03-09-2009,5.104068663,2.632540793,4.391273085,4.783767323,0,2,11000,3,CA,1,0,0,0,1,cleantech,0,0,0,0,0,0,1,0,0,1,c:80433,1,1,1,1,0,0,1,0,closed
915,CA,41.77427264,-121.82483,6002,c:164922,Hartford,Somerville MA 2143,Social Collective,1,01-08-2011,11-01-2012,11/30/2006,12-01-2009,3.862273458,0.9987632,0.71720821,,0,3,47254336,3,TN,0,0,0,0,0,semiconductor,0,1,0,0,0,0,0,0,0,1,c:35887,0,0,0,0,0,1,1.087549225,1,acquired
249,CA,40.52703718,-120.9434803,92705,c:32023,Annapolis,Woburn MA 1801,Limerick BioPharma,0,01-01-2004,12-02-2012,4/13/2011,4/19/2012,0.604285712,3.851673524,3.300621065,6.589384021,0,1,6940804,3,WA,0,0,1,0,0,security,0,0,1,0,1,1,0,0,0,1,c:6150,0,0,0,1,0,0,1.08940296,0,acquired
689,CA,37.64314158,-73.14041306,1719,c:43233,Foster City,Brooklyn NY 11217,Teknovus,0,01-01-2008,10/31/2012,04-01-2007,05-01-2010,1.47515529,3.677166795,0.612220887,4.722705926,0,3,895561,0,MD,0,0,0,0,0,messaging,0,0,0,0,1,0,0,0,0,1,c:83176,1,1,0,1,0,0,7.524993435,1,closed
739,CA,37.93568211,-121.2248391,94111,c:2804,Addison,,WiLinx,0,01-01-2000,,11/19/2010,5/20/2008,5.563019948,3.014702172,4.484303453,4.936243517,1,3,9814216,2,MA,0,0,0,0,0,web,0,0,1,0,0,0,0,0,0,0,c:25713,1,0,1,0,1,0,2.394036658,1,closed
554,GA,33.98189691,-95.28984777,98119,c:1111,Washington,Sunnyvale CA 94085,QuantaLife,0,01-01-2005,01-04-2010,04-01-2009,03-12-2007,16.29001083,7.1551534,1.383112298,3.328551548,0,2,4563629,0,GA,0,0,0,0,0,messaging,0,0,1,0,0,1,0,0,0,0,c:10137,1,0,0,1,0,0,1,1,acquired
573,CA,33.45734776,-120.1886549,94025,c:86,Los Gatos,,Accept Software,1,06-01-2003,06-01-2013,03-08-2006,10-07-2009,0.930093184,1.749737126,5.499692647,,4,4,10886379,1,MA,0,0,0,0,1,security,0,0,0,1,0,0,0,0,0,1,c:38794,0,1,1,1,0,0,3.226575496,1,acquired
298,NJ,33.98843466,-120.9247728,18106,c:1445,Needham,,Dapper,1,10-01-2006,10/21/2011,05-05-2008,03-01-2011,4.575532403,2.901366835,3.140883227,4.813693971,0,6,2288079,2,MA,0,0,0,0,1,web,0,0,0,0,0,0,0,0,0,0,c:3991,0,0,1,0,0,0,3.883601479,1,closed
953,VA,41.22738906,-71.23346622,72201,c:60580,San Mateo,Alpharetta GA 30009,Behavio,1,01-01-2009,2/15/2009,01-10-2007,7/27/2010,2.661624715,8.406666109,4.899667594,6.865037334,2,2,11212949,2,GA,1,0,0,0,1,advertising,1,1,0,0,1,1,0,0,0,0,c:69279,1,1,1,1,0,0,5.20513587,1,closed
448,GA,41.71162783,-73.6507299,1810,c:30527,San Francisco,,Instagram,1,10-01-2007,,09-12-2005,2/13/2006,2.048686435,3.1744873,,2.799411886,0,1,11694944,1,CA,1,0,1,0,1,cleantech,1,0,0,0,0,0,1,0,0,0,c:1253,0,1,0,1,0,0,1.100830621,1,closed
908,NJ,37.8134518,-120.2980016,80302,c:34499,Campbell,,Songbird,1,11-01-2007,01-01-2012,02-01-2011,1/15/2008,5.001100622,4.338953706,-0.200941364,4.629777388,0,1,62339018,1,CA,0,0,0,0,1,software,0,0,1,0,0,0,0,0,0,0,c:42610,1,0,0,1,1,0,1.076887695,0,closed
283,CA,37.87947913,-120.9734447,98004,c:512,Mountain View,,IonLogix Systems,1,01-01-2005,,4/18/2009,04-10-2006,5.360126933,1.934169042,3.236012347,3.118328637,0,3,1978767,1,CA,1,0,0,0,0,software,0,0,0,1,0,0,0,0,0,0,c:2925,1,0,1,0,0,0,3.13574378,0,closed
166,CA,48.70175708,-119.550268,27713,c:38019,Redwood City,,Hitpost,0,01-01-2010,,01-01-2007,4/18/2009,4.844866724,12.97361743,2.784017429,7.137914241,0,1,6733372,1,CA,0,0,0,0,1,biotech,0,0,0,0,1,0,0,0,0,0,c:1148,1,0,0,0,1,0,1,1,acquired
257,CA,32.80344576,-119.7717616,78701,c:38655,Canton,Allentown PA 18106,Loosecubes,1,12-11-2007,4/26/2012,4/30/2010,6/30/2006,4.955024709,3.861209754,1.73330032,,2,1,8688789,0,WV,1,0,0,0,0,software,0,0,0,1,0,1,0,0,0,0,c:27339,1,0,0,1,0,0,1.083074503,1,closed
136,WA,41.77032201,-90.88484068,2210,c:51890,Little Rock,Vancouver WA 98665,Speedshape,1,07-01-2008,,12-01-2011,9/13/2010,1.450669264,8.245581436,1.986765896,3.100040868,0,3,11979336,2,CA,1,0,0,0,0,other,0,0,0,0,0,0,0,0,0,1,c:1607,1,0,1,0,0,0,4.773270232,1,acquired
550,CA,37.71867424,-120.3872676,94066,c:10864,Idaho Falls,Seattle WA 98104,MOLI,0,01-01-2007,06-01-2013,2/20/2006,04-12-2012,5.100090744,5.918420084,3.395525663,,0,2,10045585,0,CA,0,0,0,0,0,analytics,0,0,0,0,0,0,0,0,0,1,c:31559,1,0,1,1,0,0,3.747763145,1,closed
602,CA,41.93517009,-68.45271246,55311,c:16938,San Francisco,,WebVisible,0,01-01-2004,,4/30/2007,04-01-2006,2.644926427,0.810881184,2.783934584,6.524294199,0,2,17419030,3,CA,1,0,0,0,0,travel,0,0,0,0,0,0,0,0,0,1,c:9373,1,0,0,1,0,0,1,1,acquired
724,NJ,32.62715128,-120.9112159,18106,c:58550,Wilmington,Weston FL 33327,Ciclon Semiconductor Device Corporation,0,08-10-2009,02-12-2012,8/27/2008,02-01-2008,4.444243511,1.313350113,4.391197947,6.068517568,0,2,52662111,1,CA,1,0,0,0,0,cleantech,0,0,0,0,0,0,0,0,0,0,c:16784,0,0,0,0,0,1,1.923957534,1,closed
1056,CA,41.95276833,-71.49414099,10019,c:6520,Seattle,,Avid Radiopharmaceuticals,0,01-01-2007,,01-01-2006,04-01-2012,1.013928253,4.398537624,3.236936993,4.77085044,0,5,11000,1,CA,0,0,1,0,1,social,0,0,0,0,0,0,0,0,0,1,c:13168,1,0,1,1,0,0,1.090504121,1,acquired
980,CA,37.75578498,-122.3308366,98104,c:30173,San Francisco,Chicago IL 60654,FlyCast,1,01-01-2003,,2/14/2005,11-02-2009,0.576104794,1.598280088,4.394823544,3.103359824,4,2,3933956,2,TX,1,0,0,0,0,ecommerce,0,0,0,0,0,0,0,0,0,1,c:34267,1,0,1,0,0,1,6.523336388,1,acquired
680,MA,34.8288075,-73.77650314,84087,c:14787,Provo,Santa Monica CA 90405,SolFocus,0,03-01-2005,1/14/2012,11/19/2013,05-10-2013,6.991136344,0.638321499,1.438052344,1.675582586,0,1,20021072,0,CA,0,0,1,0,0,biotech,0,0,0,0,0,0,0,0,0,0,c:10581,1,0,1,1,1,0,1.049663058,0,closed
937,CA,42.73151518,-88.47978265,2451,c:12285,New York,,Jumo,1,4/16/2013,09-11-2008,02-01-2006,5/31/2006,0.569452288,2.778016021,3.014101785,3.07260648,2,1,2248805,1,CA,0,0,0,0,1,semiconductor,0,0,0,0,0,0,0,0,0,0,c:68470,1,0,1,1,0,0,2.118385206,1,acquired
982,CA,43.057551,-90.20481439,2451,c:56478,San Francisco,,SensorLogic,0,01-01-2005,,01-01-2005,01-01-2007,5.239229987,1.174180437,,2.464159404,0,1,41634576,2,CA,1,0,0,0,1,advertising,0,0,0,0,0,0,0,0,0,0,c:6313,0,0,0,1,0,0,1.845860782,1,acquired
532,NY,37.50801277,-72.97319791,Maryland 21045,c:15470,Hartford,San Francisco CA 94103,Provade,1,10-01-2006,,11-12-2008,11-06-2007,0.581624053,6.342239427,2.429764986,3.672764822,1,1,8644830,3,CA,0,1,0,0,1,network_hosting,0,0,0,0,0,0,0,0,0,0,c:53304,1,1,1,0,0,0,2.873309456,1,closed
997,CA,47.24063129,-119.6168591,94939,c:130,La Jolla,Hampton NJ 8827,Socialthing,0,01-01-2004,8/17/2012,3/29/2005,2/25/2013,1.076260015,4.653587276,1.393911549,,8,2,16744956,5,NY,0,0,1,0,0,mobile,0,0,0,0,0,0,0,0,0,0,c:49960,1,1,1,0,0,0,3.442562221,0,closed
1112,CA,43.1200941,-120.5638881,2210,c:1760,San Bruno,,Servo Software,1,01-01-2008,,10-01-2005,10-01-2007,0.688230091,1.815136998,,,0,2,410876,1,CA,1,0,0,0,0,cleantech,0,0,0,0,0,0,0,0,0,1,c:339,1,0,0,0,0,0,1,0,closed
280,CA,33.51667962,-118.6139748,10573,c:41968,Campbell,,Pixelpipe,0,01-01-2010,,6/16/2006,2/20/2008,1.352983,9.437480405,3.037060786,2.849119885,0,2,8297096,1,CA,0,0,0,0,0,mobile,0,0,0,0,0,0,0,0,0,0,c:55307,0,0,0,1,0,1,1.978122966,0,closed
1078,CA,31.79589986,-120.4971804,10012,c:23588,Beverly Hills,,ZipList,0,03-01-2011,5/27/2012,1/28/2006,4/21/2010,3.173593956,2.673287023,2.745216865,4.777766575,5,4,11000,1,CA,1,0,0,0,1,biotech,1,0,0,1,0,1,0,0,0,0,c:904,1,0,0,0,0,0,1,1,closed
249,CA,35.51112299,-118.9950536,8844,c:36310,San Francisco,,Prenova,0,01-01-2002,,01-09-2008,8/18/2008,0.772178395,1.555760754,0.544556838,,0,1,30268502,4,CA,0,0,0,0,0,other,0,0,0,0,0,0,0,0,0,1,c:1628,0,0,0,1,0,0,1.114014765,1,acquired
439,GA,34.08309821,-93.34553484,92618,c:31764,New York,Jersey City NJ 7302,ARPU,0,01-01-2007,,3/20/2012,01-01-2010,0.505066422,7.591181889,2.837508795,1.29288057,0,1,5575538,5,CA,1,0,0,0,1,advertising,0,0,0,0,0,0,0,0,0,1,c:20889,0,0,1,0,0,0,1.076051327,1,closed
1048,TN,32.71740451,-121.8509315,95054,c:3187,Avon,Allentown PA 18106,Friendsignia,0,09-01-2006,1/27/2012,1/20/2004,01-01-2008,1.814367855,0.645989563,,2.118950861,0,2,41546207,0,GA,0,0,0,0,0,real_estate,0,1,1,0,0,0,0,0,0,1,c:15509,0,1,0,0,0,0,3.63961955,0,acquired
874,CA,38.02966211,-117.8586127,92121,c:42668,San Francisco,,WiChorus,0,01-01-2004,,01-01-2004,12-05-2011,2.317717598,2.100478476,2.626915456,1.740860672,0,2,4236719,1,CA,1,0,0,0,0,ecommerce,0,0,1,0,0,0,0,0,0,1,c:36742,1,0,0,1,0,0,1.764306596,1,acquired
186,NY,36.89455082,-69.87526481,94040-1309,c:1595,Burlington,,StartupDigest,0,01-01-2008,,12-02-2011,08-01-2005,0.955669901,1.828101669,2.954776636,8.027319808,0,2,11000,1,CA,0,0,0,0,0,web,0,0,0,0,0,0,0,0,0,0,c:28424,1,0,0,1,0,0,1.106203917,0,closed
997,CA,43.94736704,-119.8394081,98033-6314,c:86120,Mountain View,,Taggstr,0,01-01-2008,,3/30/2010,1/24/2012,0.900206213,0.641830208,,4.772226271,0,4,5529617,0,CA,0,0,0,0,0,software,1,0,0,0,0,0,0,0,0,0,c:74928,1,0,1,1,0,0,1,1,acquired
254,CA,47.81301911,-94.66540053,75023,c:55043,Plymouth,Pittsburgh PA 15219,ZoomSafer,1,11-01-2005,01-01-2011,09-01-2008,05-01-2012,5.85871096,9.75704376,3.061485312,1.186727259,0,3,7906375,1,VA,0,0,0,0,1,software,0,0,0,0,0,1,0,0,0,1,c:25306,1,1,1,1,0,1,2.07568978,1,closed
709,IL,40.42057326,-118.9742337,10003,c:202,Campbell,Durham NC 27701,IonLogix Systems,0,01-01-2004,11-10-2010,02-04-2009,12-03-2009,2.539555923,3.346539936,,2.048036036,3,4,11000,1,TX,0,1,0,0,1,ecommerce,0,0,1,0,0,0,0,0,0,1,c:1224,1,0,1,0,0,0,2.602224835,0,acquired
642,KY,43.00758293,-122.7569561,10017,c:1107,Sunnyvale,,JavaJobs,0,05-01-2007,,10/17/2005,8/20/2008,0.977215418,3.247629746,,,0,2,9778768,3,CO,1,0,0,0,0,cleantech,0,0,0,0,0,0,0,0,0,1,c:37215,1,0,1,1,0,0,1.030185037,0,acquired
736,CA,41.165727,-122.7569561,45202,c:30,Mountain View,New York NY 10012,Boonty,0,01-01-2009,11-03-2012,5/16/2003,7/18/2006,2.93052356,4.34808399,4.574957817,,0,1,1333780,1,GA,1,0,0,1,0,advertising,0,1,1,0,0,0,1,0,0,0,c:40782,0,0,0,1,0,0,3.166996463,1,closed
235,CA,41.58970875,-120.5923841,19004,c:33507,Brooklyn,Los Angeles CA 90301,Devtap,0,01-01-2002,,08-04-2005,3/31/2011,1.235770315,8.128184376,,,1,2,11000,1,VA,1,0,0,0,0,semiconductor,0,0,0,0,0,0,0,0,0,0,c:835,1,0,1,1,0,1,4.368833314,1,closed
946,VA,41.73229223,-119.3540809,94002,c:16562,Chicago,Mountain View CA 94043,WooMe,0,01-01-2000,,08-01-2007,02-01-2011,1.586868796,10.74226835,2.861340393,1.392669036,1,2,11000,1,CA,0,0,0,0,0,cleantech,0,0,0,0,0,0,0,0,0,0,c:253,1,0,0,1,0,0,1.023591318,0,acquired
199,NY,34.38920587,-73.40043637,94607,c:51623,Lexington,,Genesis Networks,1,06-01-2006,12-02-2011,11-01-2008,02-01-2005,-1.994223426,6.20135474,2.865373209,1.846069369,2,3,56627372,1,TX,0,0,0,0,1,web,0,0,0,1,0,1,1,0,0,1,c:55829,0,0,1,1,0,1,4.734101901,1,acquired
609,CA,42.55315422,-118.3207416,10010,c:62802,San Francisco,,HotPads,0,01-01-2000,,02-01-2005,09-02-2010,0.951079409,3.168277635,1.032000525,,0,2,11000,1,NY,1,0,0,0,0,games_video,1,0,1,0,0,0,0,0,0,1,c:144631,1,0,0,1,0,0,3.102822513,0,closed
590,TX,37.75352613,-120.5153219,90025,c:23533,Mountain View,,Skyway Software,0,07-01-2000,10-01-2012,05-05-2010,05-11-2009,7.836491809,1.952177204,2.944251875,1.68037765,0,2,2814009,2,NY,1,0,0,0,1,mobile,0,0,0,1,0,0,1,0,0,1,c:52566,0,0,1,0,0,0,2.9748128,0,closed
571,CA,35.40541393,-119.0368886,94301,c:43172,Kirkland,Mountain View CA 94043,thePlatform,1,01-01-2002,,3/30/2010,7/27/2011,0.395203834,1.286370771,1.165070279,8.503910999,0,2,12557449,0,CA,0,0,0,0,0,advertising,0,0,0,0,0,0,0,0,0,0,c:40782,1,0,1,1,0,0,1.203495427,0,acquired
957,NC,41.45895143,-72.31211217,94303,c:45696,Englewood,Austin TX 78759,Wantful,0,01-01-2007,,12/15/2005,12-06-2010,0.803145754,0.669606724,0.421215182,,0,3,64029644,0,TX,0,0,0,0,0,biotech,1,0,0,0,0,0,0,0,0,0,c:36151,0,0,1,0,0,0,1,0,closed
991,CA,35.64392895,-119.1310945,90028,c:70661,Fremont,,Songza,0,01-01-2006,,02-01-2005,5/17/2012,3.10022441,3.186027837,0.804941864,2.751512541,0,1,751777,0,CA,0,0,0,0,0,software,0,0,0,0,0,0,0,0,0,1,c:25510,1,0,1,1,0,0,2.825123007,1,acquired
1083,CA,35.02412311,-75.28823142,60606,c:139729,Carlsbad,,ServiceMesh,1,09-01-2007,,08-01-2010,09-01-2008,3.010356385,3.401315041,5.641911136,1.144914242,0,1,13040003,1,CA,0,0,0,0,0,mobile,1,0,0,0,0,0,0,0,0,1,c:42227,0,0,1,0,0,0,2.027652773,0,closed
611,NY,48.15310832,-95.20791334,1864,c:155821,Philadelphia,,Chronicity,1,8/29/2007,07-01-2013,04-01-2010,8/14/2008,2.983528027,1.380625136,2.730511907,5.732350777,3,1,9827810,1,NY,1,0,0,0,1,enterprise,1,0,0,1,0,1,0,0,0,1,c:50076,0,0,0,1,1,0,6.952360284,0,closed
618,CA,40.99096597,-120.9478084,97214,c:2497,Cambridge,,Nirvanix,0,01-01-2007,,08-01-2011,1/22/2013,2.706243336,6.236151263,1.837757331,2.944956276,0,2,2117573,1,CA,0,0,1,0,1,web,0,0,0,0,0,0,0,0,0,1,c:23234,0,1,0,1,0,0,3.627880433,1,closed
438,CA,41.94826335,-120.7984499,94103,c:6012,San Francisco,,MyShape,1,01-01-2002,,08-08-2005,02-01-2006,6.016273856,2.900228348,-0.229576482,7.162691164,0,2,18404661,1,CA,0,0,0,0,0,web,0,0,0,0,0,0,0,0,0,1,c:16285,1,1,0,0,0,0,4.170775343,1,closed
1105,GA,38.11123503,-120.8892975,78701,c:34545,San Mateo,,Kashless,0,01-01-2002,,05-05-2008,01-01-2012,1.90268317,4.290828862,0.269763521,4.789309646,0,2,1011315,0,NC,0,0,0,0,1,mobile,0,0,0,0,0,0,0,0,0,0,c:39364,0,0,0,1,0,0,2.999680489,1,closed
286,WA,37.98297886,-119.0742532,4095,c:55354,Mountain View,,Kardia Health Systems,1,01-01-2008,01-01-2012,12/21/2005,11-01-2011,0.507322965,0.743288062,1.179122619,,0,3,9388305,5,CA,0,0,0,0,0,semiconductor,0,0,0,0,0,1,0,0,0,1,c:9669,0,0,1,0,0,0,3.406128674,1,closed
853,CA,37.69938433,-117.4117271,33327,c:26988,San Francisco,,MX Logic,0,05-01-2006,,6/14/2007,1/13/2010,1.606615767,3.226919124,3.184103851,3.586017518,0,4,4500041,1,CA,1,0,0,0,0,mobile,1,1,0,0,0,0,0,0,0,1,c:51745,0,0,0,1,0,0,2.176598093,0,acquired
1153,CA,35.3426411,-117.1087473,94105,c:741,Seattle,,BridgePoint Medical,0,01-01-2008,,05-01-2010,09-01-2007,7.49854775,1.004154974,,3.17136414,0,2,11000,2,CA,1,0,0,0,1,software,0,0,0,0,0,0,0,0,0,1,c:42610,1,0,1,1,0,0,1,1,acquired
1029,CA,37.89216936,-90.32815797,94301,c:39101,Durham,,Taggstr,1,01-01-2004,,09-12-2005,1/29/2007,1.045005296,1.225971565,3.169381351,5.304578711,0,1,2688734,2,CA,1,0,0,0,1,security,1,0,0,0,0,0,0,0,0,0,c:4622,1,0,1,0,0,0,3.980366272,1,closed
840,CA,37.73660788,-121.5704653,2142,c:2838,Palo Alto,,nprogress,1,01-01-2000,,01-07-2005,06-01-2011,3.695307097,3.817852035,,2.516158481,0,1,1818402,1,CA,0,0,0,0,0,software,0,0,0,0,0,0,0,0,0,1,c:975,0,0,0,1,0,0,3.954156673,1,closed
687,CA,37.89979227,-117.9469747,95054,c:5264,Atlanta,,Oodle,1,01-01-2003,,10-06-2010,2/17/2011,2.165817351,2.450062102,0.245513196,2.66147586,0,2,11100843,1,CA,1,0,0,0,1,web,0,0,0,0,0,0,0,0,0,1,c:35511,1,0,1,1,0,0,3.17093118,1,acquired
1038,CA,42.1923967,-121.5976937,6032,c:15652,San Francisco,Mountain View CA 94043,Zipcar,1,01-01-2000,,12-07-2005,06-01-2011,1.894349319,2.796019796,2.843165753,2.169249859,0,3,11000,0,CA,1,0,0,0,1,web,0,0,0,0,0,0,0,0,0,1,c:26460,1,0,0,0,0,0,1,1,closed
1128,CA,33.71780731,-117.2813136,94105,c:334,Austin,,Oasys Mobile,0,01-01-2004,,09-07-2005,10-01-2008,1.345121619,2.56097111,2.794822356,5.012934101,0,2,11000,1,CA,0,0,0,0,1,network_hosting,1,0,0,0,0,0,0,0,0,0,c:60521,0,1,1,1,0,0,1.881763516,1,closed
122,IL,37.89824252,-74.38340294,98101,c:4961,Bala Cynwyd,Atlanta GA 30305,Invite Media,0,01-01-2001,01-01-2012,11-10-2009,12/24/2009,5.182771947,8.495586643,4.122534559,2.859255763,2,4,41361455,0,AR,1,0,0,0,0,cleantech,0,0,1,1,0,0,0,0,0,1,c:45413,0,0,1,1,1,1,4.920080564,0,closed
1066,CA,37.80937264,-120.2498043,94041,c:40197,Mountain View,,Parascale,0,01-01-2010,,12-01-2006,11-06-2007,-0.074982636,0.621407666,1.460953315,4.559601532,0,2,11000,1,WA,0,0,0,0,0,advertising,1,0,0,0,0,0,0,0,0,1,c:25997,1,0,1,1,0,0,2.035530229,1,closed
525,CA,38.01143923,-74.05319315,53562,c:37304,Los Angeles,New York NY 10011,Mytopia,0,01-01-1998,,08-01-2011,12/14/2009,1.445837802,1.384482909,0.723510264,4.783145745,0,1,11000,1,CA,1,0,0,0,1,biotech,0,0,0,0,0,0,0,0,0,0,c:8100,0,0,1,0,0,0,5.448262691,1,closed
977,CA,42.46780927,-87.7475387,92618,c:155621,New York,,Lionside,1,01-01-2000,,01-01-2008,09-02-2010,0.787899993,1.809183107,2.420563246,4.859295454,0,2,11000,1,GA,1,0,0,0,0,mobile,0,0,1,0,0,0,0,0,0,1,c:17758,1,0,1,1,0,0,1.887400373,1,acquired
747,FL,41.6145837,-71.06818765,94107,c:23052,Santa Clara,,Fulcrum Microsystems,0,01-01-2001,06-01-2013,09-01-2006,01-01-2001,2.981599564,4.907739616,7.541019413,4.690064513,0,2,37388376,2,TX,0,0,0,0,1,enterprise,0,0,0,0,1,0,0,0,0,1,c:42497,0,0,1,0,0,0,3.633665231,1,acquired
115,NJ,41.12174082,-68.65848636,10003,c:82805,Allentown,,Redwood Systems,0,01-01-2010,06-01-2013,2/22/2010,07-12-2011,1.328309792,5.401139983,5.087883411,4.825522759,0,3,4944839,1,CA,0,0,1,0,0,ecommerce,0,0,0,0,0,0,0,0,0,1,c:1600,1,0,1,0,0,0,4.032595725,0,closed
678,CA,48.58983275,-121.5124352,94010,c:150577,New York,Frederick MD 21703,Jumptap,0,01-01-2008,,6/21/2012,1/22/2007,1.84333335,4.068282896,4.7179673,3.023818153,2,2,11000,0,WA,1,0,0,0,0,games_video,0,1,0,0,1,0,0,0,0,1,c:28456,1,0,1,1,0,1,8.33923278,0,acquired
759,CA,43.29557331,-120.2131593,98119,c:26988,San Francisco,,Panvidea,0,01-01-2002,,09-12-2005,10-01-2008,2.57167508,0.934523644,3.69550174,2.389143597,0,2,11000,2,CO,0,0,0,0,0,web,0,1,0,1,0,0,0,0,0,0,c:38019,1,0,1,1,0,0,1,1,closed
619,MA,33.40801833,-119.4347188,98109,c:38019,Palo Alto,,Vontu,1,01-01-2006,,11/18/2005,10/21/2008,0.73649807,1.973853095,0.218875241,5.103352474,0,1,11000,1,TX,1,0,0,0,1,web,0,0,0,0,0,0,0,0,0,1,c:19483,0,0,1,1,0,0,1.016196745,1,acquired
1081,GA,47.06571008,-119.2835253,94063,c:1283,Cambridge,New York NY 10016,Slipstream,1,01-01-2004,11/16/2010,12-01-2002,6/22/2010,0.834391169,4.607867362,1.159627225,5.133955687,0,1,12611970,2,CA,1,0,0,1,1,semiconductor,0,0,1,0,0,1,0,0,0,1,c:11042,0,1,0,1,0,0,3.59754528,1,acquired
570,TX,41.85499127,-121.1701534,11222,c:9,Los Angeles,New York NY 10010,Adept Cloud,0,08-01-2006,,1/18/2010,5/27/2010,2.179865055,1.036588785,3.365270568,,5,1,5483173,3,CA,0,1,0,0,0,news,0,0,0,0,0,0,0,0,0,1,c:5801,0,0,0,0,0,0,1,1,acquired
587,IL,40.24779881,-122.106586,10154,c:35157,Mountain View,Boxborough MA 1719,Aveksa,1,01-01-2011,08-01-2012,05-09-2008,06-04-2013,0.954948692,5.190487091,4.202459977,6.5982421,2,3,8508571,0,CA,1,0,0,0,0,music,1,0,0,0,0,0,0,0,0,1,c:13277,0,0,1,1,0,0,6.845447472,1,closed
254,VA,42.1227394,-87.06884154,30308,c:16283,Mountain View,New York NY 10003,Social Collective,1,09-09-2010,1/28/2011,02-01-2006,4/27/2012,1.266450242,4.855818409,0.90656543,,0,2,9978803,1,CA,1,0,0,0,1,software,0,0,1,0,0,0,0,0,0,1,c:24570,1,1,1,1,0,0,4.220250434,1,acquired
727,VA,42.19636403,-120.6919585,75001,c:8351,McLean,Yardley PA 19067,WooMe,1,06-01-2007,01-01-2012,08-04-2005,02-11-2008,14.29472136,8.269367703,3.208069036,5.569389721,8,1,17880043,0,NV,0,0,1,0,0,advertising,0,1,0,0,0,0,0,0,0,0,c:59709,1,1,0,0,0,0,4.025016142,1,closed
1013,CA,35.02743726,-121.2344019,94043,c:25713,San Francisco,,Gigi Hill,0,01-01-2007,,11-01-2009,05-01-2009,1.725002303,1.72166158,3.796816554,,0,1,5823206,2,CA,1,0,0,0,1,enterprise,0,0,0,0,0,0,0,0,0,0,c:27741,0,0,1,0,0,0,1,1,acquired
838,CA,37.87292682,-118.6300584,80302,c:45525,San Francisco,,DotSpots,0,01-01-2008,,09-12-2005,09-10-2009,1.148848024,1.157763779,2.640628984,7.563992446,0,2,11000,0,TX,0,0,0,0,0,enterprise,0,1,0,0,0,0,0,0,0,0,c:45696,1,0,1,1,0,0,6.149527839,1,acquired
1153,GA,35.90347129,-93.69326815,94025,c:19483,Sunnyvale,,Provigent,1,2/14/2005,,09-12-2005,11-12-2008,1.918418511,6.174190194,1.859464033,4.433611359,0,1,11000,1,MA,0,0,0,0,1,ecommerce,0,0,0,0,0,0,0,0,0,1,c:43873,0,0,1,1,0,0,2.205407113,1,closed
1048,CA,42.2310961,-120.967915,38103-4717,c:8676,Santa Monica,Henderson NV 89052,LocaModa,0,01-01-2000,,03-01-2007,11-01-2009,5.507819303,4.98728603,,4.978735739,2,2,11000,2,CA,1,0,0,0,1,web,1,0,0,0,0,0,0,0,0,0,c:155621,0,0,0,1,0,0,1,1,closed
633,NY,35.95771002,-72.3558695,2903,c:11888,Richardson,New York NY 10012,StyleZen,0,01-01-2000,,08-02-2005,12-07-2012,0.954519799,8.36820876,3.104937615,2.273086809,0,1,2648473,1,CA,1,0,0,0,0,enterprise,1,0,0,0,0,0,0,0,0,0,c:42163,1,1,1,0,0,0,1.104117637,1,acquired
108,NY,34.82119643,-85.05194535,78701,c:4394,Provo,,rPath,0,01-01-2005,,06-05-2009,10/31/2008,1.816572183,1.498869338,1.076762803,,0,1,1603429,1,CA,1,0,0,0,0,enterprise,0,0,0,0,0,0,0,0,0,1,c:25307,0,0,0,1,0,0,1.059490653,1,closed
1129,CA,37.66167519,-118.0126561,94105,c:31832,New York,,Hitpost,1,01-01-2000,,03-01-2006,11-07-2011,1.632983165,1.721043813,,2.446945077,0,2,11000,1,CA,1,0,0,0,1,web,0,0,0,0,0,0,0,0,0,1,c:27741,1,0,1,1,0,0,3.268137331,1,closed
968,MD,41.36405001,-120.5467165,95008,c:13127,Berwyn,New York City NY 10010,ZipList,0,01-01-2007,01-01-2008,01-01-2004,12/28/2010,2.974866635,1.512709809,,2.376425,0,1,16673605,3,CA,1,0,0,0,1,software,0,0,0,0,0,0,0,0,0,1,c:17983,1,0,1,1,0,0,4.596303875,1,acquired
515,CA,41.37531931,-121.0181164,98371,c:465,Altamonte Springs,San Francisco CA 94107,Workstreamer,1,08-01-2012,04-01-2013,1/14/2010,02-12-2007,4.074141424,4.514785717,,1.889419854,7,1,8735439,3,MN,0,0,1,0,1,education,0,0,0,0,0,0,0,0,0,0,c:14345,0,0,1,1,0,1,4.222229386,0,acquired
1080,MA,40.23781191,-72.52454069,94017,c:53831,Seattle,Campbell CA 95008,Jumptap,0,09-01-2011,,12-04-2012,8/18/2008,2.763595618,2.918623157,-0.14747542,6.920103261,1,1,15138098,1,TX,1,0,0,0,1,public_relations,1,0,0,1,0,0,0,0,0,1,c:14608,1,0,0,1,1,0,3.158861313,1,closed
1006,MA,42.02649533,-69.58586252,94025,c:47601,New York,,Avaak,0,05-02-2002,,11/16/2006,09-06-2006,1.625586559,2.297877427,2.720555809,6.11273091,0,1,4330031,1,CA,1,0,1,0,0,music,0,0,1,0,0,0,0,0,0,1,c:20062,1,0,0,1,0,0,1.666992947,0,acquired
843,CA,41.8473109,-83.17576409,2210,c:81475,Monterey Park,,Greenplum Software,0,01-01-2008,06-01-2013,11-10-2009,11/15/2007,0.99276439,4.532774204,4.031150308,4.201300516,0,1,3659294,2,CA,0,0,0,0,0,public_relations,0,0,0,0,1,1,0,0,0,1,c:56478,1,0,1,0,0,0,1,1,closed
870,CA,37.74644911,-119.4279027,94404,c:16178,Palo Alto,,Hitpost,0,04-01-2007,,08-08-2005,12/15/2009,0.858089621,2.115109024,4.268127163,2.752107233,1,2,4198003,2,CA,0,0,0,0,0,biotech,1,0,0,0,0,0,0,0,0,1,c:16178,1,0,1,1,0,0,2.468074245,0,closed
1153,CA,42.79296664,-67.26552328,80112,c:39106,San Diego,,Sampa,1,06-01-2005,,01-01-2005,08-01-2010,1.194775396,1.693970275,3.44710956,,0,1,874943,1,CA,0,0,0,0,0,public_relations,0,0,0,0,0,0,0,0,0,1,c:59187,0,1,1,0,0,0,1.544974295,0,closed
888,NY,37.97333998,-118.3307046,37212,c:28768,Palo Alto,,Akorri Networks,0,01-01-2002,,08-01-2011,4/20/2010,0.796502004,1.779247829,1.065654909,4.443168404,1,2,11000,1,CA,1,0,0,0,0,web,0,0,0,0,0,0,0,0,0,1,c:70021,1,0,1,1,0,0,1.111746778,1,acquired
993,MA,33.4259764,-120.6188254,2452,c:16111,Santa Monica,Littleton MA 1460,Viacor,0,01-01-2003,02-07-2008,5/25/2006,6/20/2012,2.044610995,3.487269692,1.116974572,6.796260135,1,1,767499,3,CA,0,0,0,1,0,analytics,0,1,0,0,1,0,0,0,0,0,c:725,0,0,0,1,0,0,1,1,closed
461,WA,41.68431844,-88.53494124,94066,c:43875,Puyallup,Billerica MA 1821,Virident Systems,1,01-01-2010,12-02-2011,01-01-2010,09-01-2008,2.95384972,0.560854095,1.296922203,5.039656596,3,2,10530650,5,CA,0,0,0,1,1,ecommerce,0,0,0,0,0,0,0,0,0,1,c:12071,1,0,0,0,0,0,2.211999604,1,acquired
615,MA,32.99350544,-74.55603623,60601,c:3202,Somerville,Kearneysville WV 25430,Inaura,1,5/24/2005,08-01-2012,3/24/2010,10-01-2009,0.80876884,9.560305351,3.152210721,4.788488249,3,3,13135470,0,NY,1,0,0,0,0,ecommerce,1,0,0,1,0,0,0,0,0,1,c:45114,0,0,1,0,0,0,2.821175139,1,acquired
943,NY,37.49482455,-120.8901155,10019,c:49876,North Reading,Fremont CA 94538,TrustDegrees,0,10-01-2003,01-01-2001,1/23/2007,5/17/2012,4.170005748,6.115410791,0.470751275,1.323411904,9,5,79769868,2,NY,1,0,0,0,1,mobile,0,1,0,1,0,0,0,0,0,1,c:21040,0,0,1,0,0,1,6.546512367,1,acquired
764,WA,37.85447104,-81.43310823,95110,c:334,Santa Clara,Seattle WA 98104,CrowdCompass,0,01-01-2003,,5/14/2012,05-01-2008,1.199209519,0.969072654,5.689559561,2.044608607,0,2,1552262,1,CA,0,0,0,0,0,mobile,0,0,0,0,0,0,0,0,0,1,c:27285,0,0,1,1,0,0,1.87967766,1,closed
1053,WA,42.68419895,-70.55163611,30308,c:70021,Seattle,New York NY 10016,Vontoo,0,01-01-2002,,03-01-2007,5/14/2012,0.957961336,5.843972314,4.61471366,8.480802192,0,1,26142854,2,CA,0,0,0,0,1,software,0,0,0,0,0,0,0,0,0,1,c:35511,1,0,0,1,0,0,1.900836032,1,closed
230,TX,48.95360308,-75.74174365,10004,c:47662,College Park,,Behance,0,01-01-2006,,1/19/2010,11-01-2011,1.032926679,1.577554278,0.972720025,,2,1,8025549,3,TX,0,0,1,0,0,cleantech,0,1,0,0,0,0,0,0,0,1,c:45112,1,0,0,1,0,0,1.082923851,1,acquired
993,VA,42.14964215,-120.1714812,94401,c:5932,New York,Boston MA 2210,Sonar.me,1,01-01-2007,,05-09-2006,4/18/2008,12.8280186,1.633034914,3.766725973,5.066817379,0,1,26881547,2,MI,1,0,0,0,1,photo_video,1,0,0,0,0,0,0,0,0,1,c:31936,1,1,0,1,0,1,1.240212807,1,acquired
937,CA,37.77526218,-70.68976389,94041,c:12224,Austin,Austin TX 78701,Emergent Game Technologies,1,01-01-1997,,05-01-2009,4/27/2012,1.181173828,5.403245483,,1.896674556,1,1,11000,0,CA,0,0,0,0,1,news,0,0,0,0,0,0,0,0,0,1,c:39507,0,0,0,0,0,0,1.137191028,1,acquired
524,NH,37.81740667,-93.82093766,40507,c:20117,Long Island City,Portland OR 97201,Nexsan,0,08-02-2008,06-01-2012,07-03-2008,04-05-2006,4.680917808,3.987379853,4.466452909,5.192337802,0,4,11000,0,MA,1,0,0,0,1,web,0,0,0,1,1,0,0,0,0,1,c:13168,1,0,1,0,0,0,4.756959625,1,closed
