,Unnamed: 0,state_code,latitude,longitude,zip_code,id,city,Unnamed: 6,name,labels,founded_at,closed_at,first_funding_at,last_funding_at,age_first_funding_year,age_last_funding_year,age_first_milestone_year,age_last_milestone_year,relationships,funding_rounds,funding_total_usd,milestones,state_code.1,is_CA,is_NY,is_MA,is_TX,is_otherstate,category_code,is_software,is_web,is_mobile,is_enterprise,is_advertising,is_gamesvideo,is_ecommerce,is_biotech,is_consulting,is_othercategory,object_id,has_VC,has_angel,has_roundA,has_roundB,has_roundC,has_roundD,avg_participants,is_top500,status
0,3000,CO,25.752358,-78.81774946,sdv-pii-xenur,sdv-pii-c079g,sdv-pii-35vev,sdv-pii-vgnee,sdv-pii-07as1,1,05/31/2002,,07-08-2006,09-04-2010,-0.848368175,8.709683443,3.133700953,0.005743291,7,3,11000,3,CA,1,0,0,0,1,software,0,0,0,0,0,0,0,0,0,1,sdv-pii-qknz2,1,0,0,1,0,0,1,1,acquired
1,3001,CA,37.75086936,-117.2233372,sdv-pii-csphg,sdv-pii-3vmvq,sdv-pii-7n32s,,sdv-pii-k3xfr,1,12/18/2005,,09/13/2008,12-08-2010,0.086798923,11.6736714,-0.690646416,,0,5,11000,1,CA,0,0,0,0,0,semiconductor,0,0,0,1,0,0,0,0,0,1,sdv-pii-nnvm0,0,0,0,0,0,0,1.361688897,1,acquired
2,3002,CA,43.81789523,-118.6550412,sdv-pii-czmdp,sdv-pii-h2hd0,sdv-pii-ab39s,,sdv-pii-4azvg,1,03/16/2000,,03/30/2008,10/17/2008,4.474609392,5.398607307,10.14074838,5.150925944,10,1,11000,0,CA,1,0,0,0,0,enterprise,0,0,0,0,0,0,0,0,0,1,sdv-pii-aet9k,0,1,1,0,1,0,1,1,closed
3,3003,CA,42.52962009,-67.25392661,sdv-pii-0l5hk,sdv-pii-xd4yg,sdv-pii-wjpgh,,sdv-pii-7aziw,1,12/20/2005,,02/27/2009,09/21/2010,0.23447211,13.33207647,3.576292767,4.005067988,13,1,11000,3,MN,0,0,0,0,1,biotech,0,0,1,0,0,0,0,0,0,0,sdv-pii-0eipg,0,0,0,0,1,0,1.300856831,1,closed
4,3004,CA,42.30848346,-119.51921,sdv-pii-neud0,sdv-pii-glfnh,sdv-pii-cpja9,sdv-pii-2spyx,sdv-pii-m39ia,0,05/17/2002,,10-05-2009,02-11-2013,4.950996902,1.559460613,3.519235119,,3,2,11000,1,CA,0,1,0,0,1,analytics,1,1,0,1,1,0,0,0,0,0,sdv-pii-3lr08,0,1,1,0,1,0,1,1,closed
5,3005,TX,41.60185431,-116.3864058,sdv-pii-qfhv7,sdv-pii-eyw8n,sdv-pii-83zhr,,sdv-pii-vor6s,1,03-12-2010,09/27/2011,07/20/2010,04/19/2010,1.555675367,1.552031558,15.27154826,2.446379045,1,4,11000,3,CA,0,0,0,0,0,web,0,0,0,0,0,0,0,0,1,0,sdv-pii-dlyhi,0,1,1,0,0,0,3.053201542,1,closed
6,3006,CA,42.39737583,-61.96934868,sdv-pii-r9enl,sdv-pii-jc8sc,sdv-pii-wuag7,,sdv-pii-vf0b6,0,12/18/1996,11-10-2011,07-10-2007,03-12-2009,2.064092896,7.893691577,,4.302769944,11,3,11000,2,CA,1,0,0,0,0,software,0,1,0,0,0,0,0,0,0,0,sdv-pii-tdwkf,0,0,0,0,0,0,1.093510143,1,acquired
7,3007,FL,37.47065467,-116.6521733,sdv-pii-9pgri,sdv-pii-1fvcb,sdv-pii-mpxs9,,sdv-pii-ykmpd,1,12-05-1999,,11-09-2005,09/26/2009,-0.518691471,2.234867699,3.963391745,2.584691749,14,2,11000,0,CA,0,0,0,0,1,messaging,0,0,1,0,0,0,1,0,0,0,sdv-pii-s00bl,1,1,0,0,1,0,4.457467937,0,acquired
8,3008,NY,38.30496029,-74.73828177,sdv-pii-onbeu,sdv-pii-pbzie,sdv-pii-84hji,,sdv-pii-ocnuh,1,01/25/2010,,06/19/2005,06/18/2010,0.329532525,2.086582101,1.129240517,4.15760863,5,2,11000,6,CA,1,0,0,0,0,software,0,0,0,0,0,0,0,0,0,0,sdv-pii-7oxd8,0,0,1,0,0,0,2.40749391,1,acquired
9,3009,CA,34.0803106,-68.31311147,sdv-pii-pkf18,sdv-pii-uxi9p,sdv-pii-okuit,sdv-pii-ig48t,sdv-pii-9zhl3,1,06/16/2002,,02/15/2008,06/25/2010,0.449440208,5.805246257,12.96255219,-2.182938928,6,2,6132329,4,CO,0,0,0,0,0,analytics,0,0,0,0,1,0,0,0,0,1,sdv-pii-twxky,0,0,0,1,1,0,1,1,closed
10,3010,TX,38.17968317,-63.60867189,sdv-pii-66zfk,sdv-pii-7qqms,sdv-pii-9qnlo,sdv-pii-x1seu,sdv-pii-yafm7,1,03/13/2005,,07-11-2004,10/19/2006,0.850398535,4.498920234,2.747374454,1.628207235,12,2,11000,3,IL,0,0,0,0,0,news,0,0,0,0,0,0,0,0,0,1,sdv-pii-ddsr7,0,0,0,0,0,0,2.319787166,0,acquired
11,3011,CA,40.65196371,-72.94465884,sdv-pii-p1o6c,sdv-pii-oi06t,sdv-pii-84w0n,,sdv-pii-yxu53,1,01-09-2000,11-01-2011,10/19/2010,09-12-2009,0.3847223,3.305832233,1.087819258,7.419021002,2,5,11000,3,CA,0,0,0,0,0,advertising,0,0,0,0,0,0,0,0,0,0,sdv-pii-iyuae,0,1,1,0,0,0,2.608975693,1,acquired
12,3012,CA,37.8981689,-64.32685655,sdv-pii-2zmkb,sdv-pii-r9p9h,sdv-pii-0hwi9,sdv-pii-2y7qv,sdv-pii-2ba11,1,05-10-2009,,11-01-2009,05/19/2009,0.860665733,3.183445272,3.85712273,1.052747037,4,1,929823,2,CA,0,0,0,0,1,network_hosting,0,0,0,0,0,0,0,0,0,0,sdv-pii-zqh44,0,0,1,0,0,0,1,1,acquired
13,3013,CA,49.887441,-115.8909978,sdv-pii-gwc37,sdv-pii-1oktj,sdv-pii-ha5b0,,sdv-pii-2p7ya,1,02-01-2009,,05-01-2003,11/14/2013,-0.62021476,1.353430954,8.559971293,3.652160517,5,1,11000,2,CA,1,0,0,0,0,software,0,0,0,0,0,0,0,0,0,1,sdv-pii-lfp4i,0,1,1,0,0,0,1.53294259,1,acquired
14,3014,TX,38.36034223,-66.9873271,sdv-pii-mcvqm,sdv-pii-eyhyx,sdv-pii-bh0ar,sdv-pii-zou5p,sdv-pii-tby52,1,10/20/2009,,09-10-2008,05/21/2012,0.356727023,2.715336943,4.235359893,4.350318722,6,2,11000,1,CA,1,0,1,0,0,messaging,0,0,0,0,0,0,0,0,0,0,sdv-pii-g7li8,0,0,0,0,0,0,3.783933002,1,acquired
15,3015,TX,37.22191854,-65.2744935,sdv-pii-rnlbn,sdv-pii-kfdbv,sdv-pii-mbctf,,sdv-pii-h7et2,1,10-11-2003,,10/29/2007,11/27/2010,1.205406084,5.341506188,0.684685006,3.928062323,3,4,11000,1,CA,1,0,0,0,1,security,0,0,0,0,0,0,0,0,0,0,sdv-pii-9nev3,0,0,0,1,1,0,1.925877323,1,acquired
16,3016,CA,44.62003382,-117.4717763,sdv-pii-xifeu,sdv-pii-tsdfo,sdv-pii-586an,,sdv-pii-38aad,1,03-04-2003,,02-06-2008,07/25/2012,-0.860051193,1.429949448,4.037863953,,9,7,11000,0,CA,0,0,0,0,1,advertising,1,1,0,0,0,0,0,0,0,1,sdv-pii-r4ff7,0,0,0,0,1,0,3.896249876,1,acquired
17,3017,CA,45.83796537,-115.5153208,sdv-pii-gcmgo,sdv-pii-019bm,sdv-pii-im715,sdv-pii-l96kc,sdv-pii-5855o,1,05-02-2009,,12/31/2007,01/17/2010,0.669313192,4.745804024,3.908511611,6.427103155,9,3,11000,1,CA,1,0,0,0,0,semiconductor,0,0,0,0,0,0,0,0,0,0,sdv-pii-tggiv,0,1,0,1,0,1,1.852686475,1,closed
18,3018,IL,41.82598543,-116.8363223,sdv-pii-dbuuo,sdv-pii-9ubf9,sdv-pii-xs2bb,sdv-pii-w6qsz,sdv-pii-6c835,1,02/13/2010,02-07-2012,10-07-2005,05-11-2013,4.55856782,14.55627928,13.49779279,,2,4,11000,1,MA,0,0,0,0,1,advertising,0,1,0,0,1,0,0,0,0,0,sdv-pii-vnkge,0,0,0,0,1,0,5.161937743,1,acquired
19,3019,CA,51.88435157,-116.7493512,sdv-pii-h242b,sdv-pii-tlyzx,sdv-pii-jwvh7,sdv-pii-ost3o,sdv-pii-4hqvq,0,08/19/2003,,02-06-2010,01/29/2009,-0.287814724,0.245140766,15.60555491,,22,1,11000,3,CA,1,0,0,0,1,biotech,0,0,0,0,1,0,0,0,0,0,sdv-pii-g76ig,0,0,0,0,1,0,1.009952538,1,acquired
20,3020,NY,38.25567518,-118.3080297,sdv-pii-hs58f,sdv-pii-3o429,sdv-pii-u0o1j,,sdv-pii-qg0ta,1,07/23/2007,09-05-2011,02/17/2007,02-10-2008,2.571183528,1.301279058,13.08587055,3.61672926,4,2,11000,0,WA,0,0,0,0,1,biotech,0,0,0,0,0,0,0,0,0,0,sdv-pii-x1iv1,0,1,0,0,0,1,2.954268594,1,acquired
21,3021,TX,37.88708082,-65.15969574,sdv-pii-vgt4s,sdv-pii-zynsn,sdv-pii-qh6i6,,sdv-pii-wuvld,0,09-11-2007,,01-06-2007,08-11-2010,8.200153337,7.045420335,3.2003921,-0.229692337,4,7,3922269,2,GA,0,0,1,0,0,biotech,0,0,0,0,0,0,0,0,0,1,sdv-pii-sjnzn,1,0,0,1,0,0,4.993295811,1,acquired
22,3022,NY,43.88210597,-66.02616463,sdv-pii-wq2ki,sdv-pii-py9t7,sdv-pii-z8od7,sdv-pii-3slig,sdv-pii-b7tdz,1,03-02-2000,09/19/2011,10/18/2007,03-08-2011,-1.226275597,0.538541953,3.276001132,3.791682652,14,4,11000,1,CA,0,0,1,0,0,education,0,0,0,0,0,0,0,0,0,0,sdv-pii-ag45i,0,1,0,1,0,0,1,1,acquired
23,3023,TX,37.87759532,-116.914154,sdv-pii-gmksb,sdv-pii-zkz08,sdv-pii-0gyv7,,sdv-pii-6m3wo,1,03/29/2004,,08/19/2006,10/19/2010,0.044824195,2.088775251,3.540908984,2.414464319,0,3,11000,0,CA,1,0,0,0,0,education,0,0,0,0,0,0,0,0,0,1,sdv-pii-d447i,1,0,1,0,0,0,1,1,acquired
24,3024,NY,31.87620657,-73.18991345,sdv-pii-lbwyb,sdv-pii-3tjdq,sdv-pii-zi6jt,,sdv-pii-yoawo,0,12/31/2001,10/17/2011,12-12-1998,09/23/2012,1.430163204,6.688946154,,1.418464805,3,1,11000,0,NJ,0,0,0,0,1,hardware,0,0,0,0,0,0,0,0,0,0,sdv-pii-5b3j4,0,0,1,0,1,0,3.85507154,1,acquired
25,3025,CA,34.06992955,-114.8249606,sdv-pii-stz5a,sdv-pii-fc02k,sdv-pii-dqu32,,sdv-pii-8qfd1,1,12/17/2009,,05-02-2009,02/13/2011,0.0692106,14.98395892,16.29272237,5.092390597,3,3,11000,0,NY,0,0,0,0,1,games_video,0,0,0,1,0,0,0,0,0,1,sdv-pii-bhsdo,1,1,1,0,0,0,1,1,closed
26,3026,CA,37.67647042,-79.97787458,sdv-pii-nuhz2,sdv-pii-0qa46,sdv-pii-p5oaq,sdv-pii-lcfzx,sdv-pii-lfhe5,1,02-12-2009,,08-02-2011,09/24/2008,0.769794255,1.456149358,3.506855758,2.73374276,29,5,11000,3,MA,0,0,0,0,0,search,0,0,0,0,1,0,0,0,0,1,sdv-pii-na3yd,0,0,1,0,0,0,1,1,acquired
27,3027,CA,44.70197953,-121.2642676,sdv-pii-ez9jm,sdv-pii-oobgb,sdv-pii-99zru,,sdv-pii-o97g1,1,05-09-2011,,01-11-2014,01/29/2013,7.10005454,0.756736719,14.12521143,,5,1,11000,0,NJ,0,0,0,0,1,web,1,0,1,0,0,1,0,1,0,0,sdv-pii-k50ro,0,1,0,1,0,1,1,0,acquired
28,3028,MO,40.09161996,-63.31066833,sdv-pii-eympn,sdv-pii-ska3k,sdv-pii-ijpl6,sdv-pii-ukhlt,sdv-pii-fz2et,1,05/24/2003,10-01-2011,11/15/2006,07-06-2014,1.659405682,1.749079842,3.472683799,,12,3,11000,1,VA,0,1,0,0,0,network_hosting,1,1,1,0,0,0,0,0,0,1,sdv-pii-mo8uw,0,1,1,0,1,0,4.964742163,1,acquired
29,3029,CA,38.41632287,-117.8893546,sdv-pii-0pn27,sdv-pii-ut62g,sdv-pii-ikmu5,sdv-pii-6qs5k,sdv-pii-bdsn5,1,02-10-2009,08/31/2012,06/24/2007,09-06-2006,1.991760283,0.898049474,9.092202505,,8,6,11000,0,CA,1,0,0,0,0,mobile,1,0,0,0,0,0,0,0,0,0,sdv-pii-94s4k,1,1,0,0,0,1,1.582873321,1,acquired
30,3030,NY,37.3914609,-73.61762178,sdv-pii-qvf3b,sdv-pii-bws7x,sdv-pii-bb6tu,,sdv-pii-uakxe,0,10/20/2006,04/15/2012,12/25/2010,02-02-2006,0.678430609,5.924942891,10.21545188,,8,2,11000,3,CA,1,0,0,0,0,enterprise,0,0,0,0,0,0,0,0,0,1,sdv-pii-56rwn,0,0,1,1,1,0,1.762468324,1,closed
31,3031,CA,37.64245801,-118.3297677,sdv-pii-bflly,sdv-pii-xrac0,sdv-pii-3ol28,,sdv-pii-osq03,1,04-07-2004,02/14/2009,07-01-2013,06/14/2013,-0.322468705,2.459607258,4.420258045,4.336029315,1,2,85931671,4,CA,0,0,0,0,0,medical,0,0,0,0,0,0,0,0,0,1,sdv-pii-r1uv5,0,1,0,0,0,0,4.076983494,1,closed
32,3032,CA,32.5732724,-69.54935783,sdv-pii-luuy3,sdv-pii-qwgtx,sdv-pii-n2wj8,sdv-pii-8r5xf,sdv-pii-jwv9e,0,11/26/2000,,08/20/2011,10/17/2008,0.139445359,0.462057717,4.776384102,3.068935978,2,4,23313537,1,CA,0,0,0,0,0,social,0,0,0,0,0,0,0,0,0,1,sdv-pii-o022n,0,1,0,1,0,0,1.030878767,1,acquired
33,3033,CA,44.33586086,-62.53533714,sdv-pii-nz8d1,sdv-pii-hguiu,sdv-pii-uuycu,,sdv-pii-7tx0c,1,10-02-1998,09/13/2011,02/14/2005,12/19/2010,2.154591118,3.299967842,1.609103415,1.209641833,0,1,11000,3,CA,0,0,0,0,0,mobile,0,0,0,0,0,0,0,0,0,0,sdv-pii-c3jki,0,1,0,1,1,1,6.022308913,1,acquired
34,3034,VA,42.15392988,-117.649425,sdv-pii-ptgah,sdv-pii-npgu4,sdv-pii-jzgte,,sdv-pii-9l5wt,0,05-11-2007,,06-05-2012,04/30/2011,2.243288834,8.699300114,3.766837551,,28,4,11000,3,CA,1,0,0,0,0,hardware,0,0,0,0,0,0,0,0,0,1,sdv-pii-zcg45,1,0,0,1,1,0,2.734898529,1,closed
35,3035,WA,41.95804703,-121.2628935,sdv-pii-bwcqy,sdv-pii-emklx,sdv-pii-77hh6,sdv-pii-5xsi9,sdv-pii-v72yh,0,06/18/2006,,05/17/2006,01-04-2009,4.980356483,0.142860815,,1.778122629,8,4,11000,1,CA,0,0,0,0,0,news,0,1,0,0,0,0,0,0,0,0,sdv-pii-qoxjr,1,1,1,0,1,0,2.020353969,0,acquired
36,3036,NY,44.81182155,-66.70211934,sdv-pii-9lffp,sdv-pii-22f3t,sdv-pii-04smm,,sdv-pii-aqqlm,1,01-03-2014,,11-04-2005,08/14/2009,0.177570278,1.841489479,,,12,3,11000,5,CA,0,1,0,0,0,public_relations,0,1,0,0,0,0,0,1,0,0,sdv-pii-31ic8,0,1,1,0,0,0,1,1,acquired
37,3037,CA,38.20014147,-68.66305002,sdv-pii-8x68m,sdv-pii-c75as,sdv-pii-ewirw,,sdv-pii-or8md,1,02/18/2011,,11-02-2004,03-07-2006,1.613949042,2.416582885,,,1,3,13285838,1,CA,1,0,0,0,0,mobile,0,1,0,0,0,1,0,0,0,0,sdv-pii-ozspy,0,0,0,0,1,0,1.24313965,1,acquired
38,3038,CA,43.75979879,-67.27173895,sdv-pii-bz2qa,sdv-pii-r23o2,sdv-pii-0481s,,sdv-pii-p6wfu,1,01-07-2008,,04-11-2010,12-03-2007,3.113827316,1.138537894,3.594939904,3.516608049,8,1,11000,4,WA,0,0,0,0,1,biotech,0,0,0,0,0,0,0,0,0,0,sdv-pii-jcy1f,1,0,0,0,0,0,5.321047111,1,acquired
39,3039,CA,40.92104493,-63.26587932,sdv-pii-xiu5g,sdv-pii-s1cpb,sdv-pii-ua6hh,sdv-pii-cgniy,sdv-pii-bit3r,0,10/19/2002,09/14/2011,04/20/2009,05/20/2008,4.262284328,2.523580377,,0.926316377,24,5,11000,3,WA,0,0,0,0,0,games_video,0,0,0,0,0,0,0,0,0,1,sdv-pii-sccyq,0,0,1,0,0,0,4.06412077,1,acquired
40,3040,CA,50.09342851,-65.43345375,sdv-pii-g7y5f,sdv-pii-0v1hb,sdv-pii-itmy2,,sdv-pii-t3ir4,1,04/29/2003,,09-05-2006,06/18/2013,2.495832436,8.744156841,,-0.309115141,18,3,616441,0,WA,0,0,0,0,1,games_video,0,0,0,0,0,0,0,0,0,1,sdv-pii-ze36h,0,0,0,1,0,0,2.90456171,1,closed
41,3041,NJ,37.8342227,-118.2310183,sdv-pii-f7m3t,sdv-pii-wvx14,sdv-pii-6jzit,,sdv-pii-1g1c7,1,11-01-2000,10-01-2011,10/17/2006,10/24/2008,1.083834185,2.099849988,13.83893986,-1.054589937,2,1,51923326,0,MD,0,0,0,0,0,semiconductor,0,0,0,0,0,0,0,0,0,1,sdv-pii-9tu8k,0,0,1,1,0,0,8.862839939,1,acquired
42,3042,NY,37.80997986,-101.169301,sdv-pii-m0xb4,sdv-pii-lsz3u,sdv-pii-ehchp,sdv-pii-vhfnq,sdv-pii-36o92,0,11/19/2005,,03-04-2009,05/20/2013,1.387557439,3.190795458,,-0.727751323,8,4,11000,3,WA,0,0,0,0,0,enterprise,0,0,0,0,0,0,0,0,0,0,sdv-pii-ah23v,0,0,1,1,0,0,1.597993767,1,closed
43,3043,CA,32.93000274,-117.4798478,sdv-pii-1anqm,sdv-pii-vnjil,sdv-pii-4fnp6,sdv-pii-nwh7h,sdv-pii-eja5m,1,02/15/1998,,07/20/2008,11/19/2009,0.687160319,5.804811834,3.636557627,-0.846807497,0,3,11000,5,NY,1,0,0,0,0,web,0,0,0,0,0,0,0,1,0,0,sdv-pii-qz9x3,0,1,1,0,0,0,1.324265345,1,acquired
44,3044,CO,37.42741775,-119.2419633,sdv-pii-e7qlv,sdv-pii-b4xr4,sdv-pii-hjfnd,sdv-pii-fgn6r,sdv-pii-sk7pw,1,07-11-2002,,02/27/2009,02/22/2014,-0.29636795,2.979541058,3.76195244,5.786991218,0,3,11000,1,WA,0,0,0,0,0,advertising,0,0,0,0,0,0,0,0,0,1,sdv-pii-0qzhu,0,0,1,1,0,0,1.749811569,1,acquired
45,3045,CA,35.77074427,-117.5719851,sdv-pii-vs70t,sdv-pii-3oyj1,sdv-pii-mpa3l,,sdv-pii-8wump,1,04/25/2008,,04/13/2011,10/14/2009,4.861264399,0.973935574,3.62663179,5.103839585,4,1,2156368,2,CA,0,1,0,0,1,cleantech,0,0,0,0,0,0,1,0,0,0,sdv-pii-7nn8h,0,1,0,1,0,1,2.051787974,1,acquired
46,3046,NY,43.93645178,-117.0839496,sdv-pii-oux9i,sdv-pii-4g2h4,sdv-pii-0v4js,,sdv-pii-zblt2,1,07/15/2006,09/14/2011,02-06-2007,11/15/2006,0.988104685,2.846493345,1.817219968,3.765345234,5,1,11000,0,CA,0,0,1,0,0,web,0,0,0,0,0,0,0,0,0,0,sdv-pii-z42iu,0,0,0,0,0,0,4.026267916,1,acquired
47,3047,WA,50.54659903,-72.81245906,sdv-pii-rivs3,sdv-pii-bnn3x,sdv-pii-k8g2f,sdv-pii-jhky5,sdv-pii-taidz,1,07/30/2006,,10/14/2005,04-08-2009,3.144032062,10.23578361,3.854730913,,1,1,11000,1,CA,0,0,0,0,1,cleantech,1,0,0,0,0,0,0,1,0,1,sdv-pii-09wph,1,0,0,0,1,1,2.562342325,0,closed
48,3048,CA,37.10487296,-69.8310325,sdv-pii-q1srw,sdv-pii-zsjk2,sdv-pii-zxkom,,sdv-pii-lje49,1,12/15/2003,,09-04-2003,04/17/2010,1.879158776,-0.027253297,,0.584576094,12,3,11000,2,CA,0,0,0,0,1,mobile,0,0,0,0,0,0,0,0,0,1,sdv-pii-dixfd,0,0,1,0,0,0,1,1,acquired
49,3049,MD,37.96966509,-72.00306213,sdv-pii-7kz2i,sdv-pii-xbovm,sdv-pii-1n3vp,sdv-pii-wimv9,sdv-pii-kjtl8,1,06/18/2000,,03-04-2010,08-03-2010,1.007816628,1.098365469,4.396319483,-0.000991594,11,3,11000,3,CA,1,0,0,0,0,mobile,0,0,0,0,0,0,1,0,0,0,sdv-pii-07gc2,0,0,1,0,1,1,2.140968965,1,acquired
50,3050,CA,37.92112255,-122.7569561,sdv-pii-ftmo4,sdv-pii-69esi,sdv-pii-1e5w6,,sdv-pii-op3aq,0,07/18/2007,,12-02-2009,08/22/2008,0.574353915,5.715526072,3.726739492,,8,3,11000,3,WA,0,0,0,0,0,mobile,0,1,0,0,0,0,0,0,0,0,sdv-pii-h321k,1,0,1,0,1,0,5.093576049,1,acquired
51,3051,MI,41.28860261,-74.23765632,sdv-pii-6xxge,sdv-pii-gttpq,sdv-pii-4b39o,,sdv-pii-aqkq7,1,09-11-2005,,11-04-2007,12/25/2010,3.463061465,5.733007084,4.074770487,0.968691224,0,3,3581157,5,IL,0,0,0,0,0,fashion,0,0,0,1,0,0,0,0,0,0,sdv-pii-fd8r3,0,0,0,0,0,0,1.815285792,1,acquired
52,3052,WA,48.54489453,-119.9326821,sdv-pii-zo82b,sdv-pii-0s6af,sdv-pii-851jr,sdv-pii-yzc1m,sdv-pii-buybt,1,11-06-2001,,06-06-1999,10-10-2006,-1.146710922,5.196078474,14.2975507,8.514157088,4,2,11000,2,OR,1,0,0,0,0,games_video,0,0,0,0,0,0,0,0,0,0,sdv-pii-hgrdb,1,0,0,0,0,0,4.107752509,1,closed
53,3053,VA,37.1452351,-74.54883771,sdv-pii-spcs1,sdv-pii-6rzxq,sdv-pii-0ff0t,sdv-pii-ngky8,sdv-pii-z6izj,0,10-03-2004,10/25/2011,06/20/2009,04/24/2009,0.30510406,4.961458752,,,11,4,25591015,2,OH,0,0,0,0,1,software,0,1,0,1,0,0,0,0,0,1,sdv-pii-kue7b,0,1,0,1,0,0,2.003564452,1,acquired
54,3054,CA,38.24932382,-120.7272941,sdv-pii-h4wv2,sdv-pii-2odi2,sdv-pii-d1tl1,,sdv-pii-wbld0,0,04/15/2006,09/14/2011,01/19/2007,04-08-2011,2.434164496,8.520539337,3.813211628,0.674141666,8,4,11000,1,CT,1,0,0,0,1,network_hosting,0,0,0,0,0,0,0,0,0,0,sdv-pii-y48af,0,0,1,0,0,0,1,1,acquired
55,3055,CA,41.06370031,-72.37849159,sdv-pii-kbgkm,sdv-pii-98kf0,sdv-pii-21mjx,,sdv-pii-ljhkk,1,12-05-2004,08/20/2011,08-11-2006,10-03-2011,-0.521031404,1.015291529,3.951007765,,5,2,11000,0,CA,1,0,0,0,1,analytics,0,0,0,0,0,0,0,0,0,0,sdv-pii-dw54x,0,0,1,0,1,0,1.148528001,1,closed
56,3056,CA,42.42085812,-118.457682,sdv-pii-969it,sdv-pii-hhumh,sdv-pii-5gao5,sdv-pii-gpa1b,sdv-pii-eqpuv,0,03-11-2005,,11/20/2009,10/13/2009,-0.531030422,6.814144153,9.598485891,,15,5,11000,3,NY,0,0,0,0,1,medical,1,1,0,0,0,0,0,0,0,1,sdv-pii-1mnjw,0,1,1,0,0,0,1.849027652,1,acquired
57,3057,CA,37.40296212,-67.39382535,sdv-pii-4f13h,sdv-pii-crm14,sdv-pii-7daar,,sdv-pii-qo1gy,1,11/15/2005,,05-12-2011,05/24/2011,0.195286728,2.597169989,4.266837552,5.558168235,6,4,23928514,2,CA,1,0,0,0,0,advertising,0,0,0,0,0,0,0,0,0,0,sdv-pii-upyp0,1,0,1,0,1,0,3.442180825,1,acquired
58,3058,NY,37.9028038,-119.8340942,sdv-pii-vawys,sdv-pii-gh37m,sdv-pii-6we1f,sdv-pii-qedgj,sdv-pii-skxtq,1,07-04-2010,,08-06-2003,07-06-2011,6.981515381,1.49810699,3.956654515,,11,2,11000,3,CA,1,0,0,0,1,enterprise,0,0,0,0,0,0,0,0,0,0,sdv-pii-6fue7,0,1,0,0,0,0,1.771167329,1,acquired
59,3059,CA,43.80593468,-66.13234044,sdv-pii-ch9j4,sdv-pii-dje9y,sdv-pii-5ixp7,sdv-pii-l1taa,sdv-pii-dcxur,1,09/30/2005,,09-06-2011,01/15/2011,0.349805587,-3.418538596,12.70896916,-0.067318933,4,2,11000,3,CA,1,0,0,0,1,enterprise,0,0,0,0,0,0,0,0,0,0,sdv-pii-v3d75,0,1,0,1,0,0,4.862952159,0,closed
60,3060,CA,45.50625738,-64.44390522,sdv-pii-skgkf,sdv-pii-mahjh,sdv-pii-ntyo9,,sdv-pii-1dbao,1,10-03-2004,10/15/2011,02/25/2009,08/27/2010,1.126590214,3.664112899,16.78587379,,1,2,11000,1,CA,0,0,0,0,0,software,0,0,0,0,0,0,0,0,0,0,sdv-pii-3lzgb,1,0,1,1,0,0,2.212749306,1,acquired
61,3061,CA,37.53579914,-73.69704649,sdv-pii-uk9nl,sdv-pii-45hf5,sdv-pii-h1c17,sdv-pii-6bf9h,sdv-pii-df7j7,1,05/22/2000,,08/28/2009,07-10-2010,1.652713046,8.323203052,4.008490858,4.080485338,5,4,11000,2,CA,0,0,0,0,1,ecommerce,0,0,0,0,0,0,0,0,0,0,sdv-pii-avb8m,0,1,1,0,1,1,2.039176441,1,closed
62,3062,MA,36.9249737,-70.17354707,sdv-pii-rwow0,sdv-pii-1i8ca,sdv-pii-onyjg,sdv-pii-65a0i,sdv-pii-qtzu8,1,02/20/2003,09/26/2011,11/20/2011,09/30/2012,2.633371731,9.259589186,9.275536278,-0.988827761,6,1,11000,1,CA,0,0,0,0,0,mobile,0,0,1,0,0,0,0,0,0,0,sdv-pii-9tlde,0,0,0,0,0,0,1,1,acquired
63,3063,MA,41.79530772,-116.3607026,sdv-pii-5e1uf,sdv-pii-alilb,sdv-pii-bn62r,sdv-pii-hbwa4,sdv-pii-m6s91,1,10/14/2001,09/30/2011,08-04-2012,09/15/2009,2.70896911,3.579460502,3.105678182,,4,1,11000,6,TX,1,0,0,0,0,messaging,0,0,0,0,0,0,0,0,0,1,sdv-pii-flapg,1,0,0,0,0,0,1.37779588,1,acquired
64,3064,CA,37.19644057,-116.7028225,sdv-pii-543af,sdv-pii-bjgg1,sdv-pii-8ebyg,,sdv-pii-nqvg7,0,05-07-1998,,01-02-2009,02-11-2010,-0.354445668,7.270022325,3.783833375,8.790995038,10,3,11000,1,CA,0,0,0,0,0,web,0,0,0,0,0,0,0,0,0,1,sdv-pii-wsvcn,0,0,0,0,0,0,2.087404659,1,closed
65,3065,WA,38.01874227,-119.6320899,sdv-pii-zv1k6,sdv-pii-kbpdd,sdv-pii-dtrcs,sdv-pii-e5d3v,sdv-pii-909uw,1,04/24/2006,,06/18/2007,02-10-2014,1.872872127,1.746078773,4.041541392,5.265667016,7,5,11000,2,CA,1,0,0,0,1,semiconductor,0,0,0,0,1,0,0,0,0,0,sdv-pii-falt2,0,1,1,0,0,0,1,1,closed
66,3066,CA,38.91943247,-90.79818737,sdv-pii-f0vbv,sdv-pii-hltw0,sdv-pii-oh3w9,,sdv-pii-7hh8e,1,02/16/2014,,09/19/2010,11-06-2013,2.014446571,4.74847303,3.745516273,4.136373113,6,2,11000,0,CA,1,0,1,0,1,public_relations,0,0,0,0,0,0,0,0,0,1,sdv-pii-eh3bt,0,1,1,1,1,0,1.301162004,0,acquired
67,3067,CA,39.83063062,-118.267003,sdv-pii-ggreh,sdv-pii-2e870,sdv-pii-fncwx,sdv-pii-968u4,sdv-pii-qxyhs,0,11-06-2010,11/14/2011,05/14/2010,03-08-2006,1.624389181,5.591089786,2.916445734,3.202828642,4,2,11000,1,NY,0,0,0,0,0,consulting,0,0,0,0,0,0,0,0,0,0,sdv-pii-ox6ec,0,0,1,0,1,0,1.597871765,1,acquired
68,3068,CA,44.11255985,-117.1922619,sdv-pii-4v8b1,sdv-pii-m3ubp,sdv-pii-88z4d,sdv-pii-g85jz,sdv-pii-znrbq,1,03/13/2000,10/13/2011,08/26/2009,03/21/2011,8.064471694,3.837462037,13.84416073,,6,3,11000,0,CA,0,0,0,0,1,web,0,0,0,0,0,0,0,0,0,1,sdv-pii-90jcm,0,1,0,1,1,1,2.669005868,1,closed
69,3069,CA,37.73862557,-120.8952639,sdv-pii-km5up,sdv-pii-zpoqf,sdv-pii-g95h6,,sdv-pii-xqgo3,1,03/31/2001,,10-06-2007,08-02-2006,0.714056258,2.873741046,0.438572539,5.145509722,14,1,11000,3,CA,1,0,0,0,0,semiconductor,0,0,0,0,0,0,0,0,0,1,sdv-pii-peipy,0,1,1,0,0,0,1.045132759,1,acquired
70,3070,CA,40.76853988,-117.6430839,sdv-pii-7icwc,sdv-pii-y8wzo,sdv-pii-6yxmz,,sdv-pii-ro522,0,02-11-2007,,03/29/2006,06/29/2010,0.137623804,10.90461987,,,14,2,11000,0,VA,0,0,0,0,1,biotech,0,0,0,0,0,0,0,0,0,0,sdv-pii-r9mli,0,0,0,0,1,0,1.639920694,1,acquired
71,3071,CA,37.68116177,-66.77981459,sdv-pii-zmol2,sdv-pii-kh8hj,sdv-pii-bucc6,,sdv-pii-uqkkw,1,11/23/2001,05/13/2012,11/29/2007,10/24/2005,0.282759724,5.819026111,2.831039001,,0,3,8032828,2,WA,1,0,0,0,0,web,0,0,0,0,0,0,0,0,0,0,sdv-pii-czovy,1,0,1,0,0,0,8.801314519,0,closed
72,3072,CA,46.95584453,-120.6604782,sdv-pii-9aqb2,sdv-pii-oltij,sdv-pii-9xjrm,,sdv-pii-k1hdh,1,01-03-2010,09/26/2011,07-06-2006,03/20/2006,0.518932136,5.054926315,4.082518723,4.275468717,5,2,11000,3,CA,0,0,1,0,1,web,0,0,0,0,0,0,0,0,0,1,sdv-pii-2fcnt,0,0,1,1,1,0,5.09835523,1,closed
73,3073,CA,36.42931829,-64.0503507,sdv-pii-a8fyj,sdv-pii-2vx9l,sdv-pii-l7pnx,,sdv-pii-qfg1f,1,06/22/1997,10/20/2011,07/22/2006,03/27/2014,0.002955842,6.042548131,4.130074245,0.983435638,5,1,11000,0,CA,1,0,0,0,0,automotive,0,0,0,0,0,0,0,0,0,1,sdv-pii-r8u7c,0,0,0,1,1,0,1,1,closed
74,3074,MO,36.64053195,-71.11985758,sdv-pii-av5q4,sdv-pii-6wi0h,sdv-pii-ogq3g,,sdv-pii-xrqkk,1,06-08-2009,,09-04-2006,09-12-2009,2.126502492,0.977443658,14.47285984,1.728467568,7,1,25560088,2,MA,0,0,0,0,1,biotech,0,0,0,0,0,0,0,0,0,1,sdv-pii-wm5pm,0,0,1,1,1,1,1,1,closed
75,3075,CA,39.36492289,-118.3565559,sdv-pii-r8u7s,sdv-pii-cuvd1,sdv-pii-88yi3,sdv-pii-r58fl,sdv-pii-f5qun,1,04/16/2011,06/13/2012,06/28/2007,10/18/2008,3.003665732,3.214255288,,2.21477073,7,1,11000,2,CA,0,0,0,0,0,games_video,0,0,0,0,0,0,0,0,0,0,sdv-pii-vdyxl,0,0,1,0,0,0,1.038468805,1,acquired
76,3076,NY,43.05416518,-74.73546492,sdv-pii-3pz2q,sdv-pii-ft1r9,sdv-pii-nro9b,,sdv-pii-yfaxs,1,01/15/2006,,04-07-2009,12/24/2008,1.750770716,0.549601045,1.017920774,4.143255767,15,2,11000,3,CA,0,0,0,0,1,web,0,0,0,0,0,0,0,0,0,1,sdv-pii-u8b5o,0,1,0,0,0,0,3.895153157,1,closed
77,3077,CA,37.14145903,-114.7515443,sdv-pii-cjt46,sdv-pii-0zrjc,sdv-pii-zyold,sdv-pii-jgpdh,sdv-pii-nzgwv,1,05/26/2005,,01/25/2007,10-06-2010,0.744310103,5.615706087,,8.844877668,8,2,11000,1,CA,0,0,0,0,0,games_video,0,0,0,0,0,0,0,0,0,1,sdv-pii-q27kh,0,0,0,0,0,0,3.972556186,1,closed
78,3078,CA,44.05880829,-116.8101143,sdv-pii-55bbq,sdv-pii-8y0uc,sdv-pii-ipfxv,sdv-pii-omvzp,sdv-pii-sc2yb,1,04-09-2007,,02/26/2012,07/26/2012,1.786969836,6.05301925,,2.596920862,13,3,11000,2,CA,0,0,0,0,0,advertising,0,1,0,0,0,0,0,0,0,1,sdv-pii-2ngdl,0,0,1,1,0,0,1.410903171,1,acquired
79,3079,CO,44.07605284,-119.9428547,sdv-pii-0eg74,sdv-pii-c2dmc,sdv-pii-87abo,,sdv-pii-jua0a,1,02/26/2007,,05-07-2008,02/23/2014,2.299561069,4.009253108,17.10822421,,2,5,11000,3,MA,0,0,0,0,0,software,0,0,0,0,0,0,0,0,0,0,sdv-pii-artan,0,0,1,0,1,0,5.292395648,1,acquired
80,3080,NM,35.61044003,-68.296711,sdv-pii-slyf1,sdv-pii-w3t7f,sdv-pii-t2hfb,,sdv-pii-e6au4,1,02-11-2002,,10-12-2004,12/23/2011,7.629104618,1.417736599,3.926037689,3.331303509,14,3,11000,2,CA,0,0,0,0,0,network_hosting,0,0,0,0,1,0,0,0,0,0,sdv-pii-1wq18,0,0,1,1,1,0,1.893075339,1,acquired
81,3081,CA,51.73662794,-115.9190909,sdv-pii-iatlp,sdv-pii-wl3s9,sdv-pii-d03tp,sdv-pii-9mxtr,sdv-pii-wcuau,1,06/22/2006,,05-04-2010,09-05-2009,1.849075053,2.504590561,4.09383334,-1.711063823,4,3,11000,3,IL,1,0,0,0,0,advertising,0,1,1,0,0,0,0,0,0,1,sdv-pii-wvn27,0,0,1,1,0,0,2.55373428,1,acquired
82,3082,TX,37.17433749,-117.5389445,sdv-pii-sbyd5,sdv-pii-b7prc,sdv-pii-8qz07,sdv-pii-g411a,sdv-pii-9nii7,1,10/30/2011,09-07-2011,04/19/2004,12/15/2010,8.52804417,2.532268745,3.71962624,3.074573712,4,3,11000,1,CA,1,0,0,0,0,enterprise,0,0,0,0,0,0,0,0,0,0,sdv-pii-82hvo,1,1,0,0,0,0,2.023898269,0,acquired
83,3083,CT,42.65765611,-85.79140843,sdv-pii-6yj9v,sdv-pii-mjt2w,sdv-pii-u46t8,,sdv-pii-c4ahc,1,09/29/2003,,03/25/2007,08/15/2011,5.469102207,7.645394397,1.114399165,,7,3,11000,3,NY,0,0,0,0,0,social,0,1,0,0,0,0,0,0,0,0,sdv-pii-bvp35,0,0,0,0,1,0,1.102962837,0,closed
84,3084,CA,40.17568034,-65.90548603,sdv-pii-5f05l,sdv-pii-sn8iu,sdv-pii-164kp,,sdv-pii-7ac02,1,12/20/2006,,04/19/2014,07-11-2010,1.369120155,11.62705599,4.227776463,8.500863606,5,4,11000,5,CA,1,0,0,0,0,public_relations,0,0,0,0,0,0,0,0,0,1,sdv-pii-dgebs,0,0,1,0,1,0,1.246689034,1,closed
85,3085,CA,37.41714713,-116.9365565,sdv-pii-u24sw,sdv-pii-g5nc7,sdv-pii-p3udg,sdv-pii-aysbx,sdv-pii-2ekdy,1,03/29/2006,,05/13/2008,04-10-2012,2.369806946,3.025493692,,4.129262503,9,1,11000,4,CA,0,0,0,0,0,security,1,0,0,0,0,0,0,0,0,0,sdv-pii-bydcf,0,1,0,0,1,0,1.121685139,1,closed
86,3086,CA,39.25332224,-68.45776831,sdv-pii-ff4jc,sdv-pii-zl0w2,sdv-pii-8mkm4,,sdv-pii-fvxt7,1,05-08-2014,,04/28/2007,04/13/2013,3.459237679,8.668818367,3.323421341,2.587446233,3,4,11000,3,CA,1,0,0,0,1,mobile,0,1,0,0,0,0,0,0,0,1,sdv-pii-gphx7,0,1,0,0,0,0,3.824801689,1,closed
87,3087,CA,37.66600664,-119.1120347,sdv-pii-16kaz,sdv-pii-wu0yp,sdv-pii-a8si2,,sdv-pii-zcqfu,1,12/26/2005,09-06-2011,10/22/2007,10/19/2010,6.899125665,2.325140942,3.395505096,0.812798094,0,2,11000,1,CA,0,0,0,0,0,mobile,0,0,0,0,0,0,0,0,0,1,sdv-pii-hkz9a,1,0,0,0,0,0,2.95473717,1,acquired
88,3088,CA,41.66219262,-72.2587476,sdv-pii-w06f5,sdv-pii-p1413,sdv-pii-ry4qq,sdv-pii-283s3,sdv-pii-m5len,1,04-01-2000,08/21/2011,09/23/2011,03/31/2010,0.938579734,8.698584415,3.820527841,-1.666009496,6,5,11000,2,CA,0,0,0,0,1,web,0,0,0,0,0,0,0,0,0,0,sdv-pii-hlhso,0,0,1,1,0,0,4.165647141,1,closed
89,3089,GA,38.19858973,-69.03154349,sdv-pii-90484,sdv-pii-nzjq2,sdv-pii-31xsk,,sdv-pii-f7vgq,0,07/18/2006,,12/25/1998,05/21/2009,4.646264756,1.157855796,12.26805403,,7,3,11000,2,NY,0,0,0,0,0,ecommerce,0,0,0,0,1,0,0,0,0,0,sdv-pii-jbaw8,0,0,0,1,1,0,1.14506168,1,closed
90,3090,CA,37.38355032,-122.7569561,sdv-pii-klv27,sdv-pii-8v2oc,sdv-pii-o39bb,sdv-pii-j7lup,sdv-pii-kyy37,0,12/15/2002,09-03-2011,02-02-2004,05-11-2008,2.148755547,6.717485836,1.188437416,4.166310199,1,1,11000,1,NY,0,1,0,0,1,other,0,0,0,0,0,0,0,0,0,1,sdv-pii-nooei,0,1,0,0,0,0,1.876664093,1,acquired
91,3091,CA,43.22719331,-70.58243843,sdv-pii-0iq9d,sdv-pii-dp1eb,sdv-pii-9bu0x,,sdv-pii-ecsmr,1,11/23/2004,09-03-2011,11/21/2010,07/22/2007,-0.043973919,-1.321925159,3.696018594,,5,4,8563739,3,MA,0,0,0,0,0,web,0,0,1,0,0,0,0,0,0,1,sdv-pii-ymcbm,0,0,0,1,0,0,1,1,acquired
92,3092,CA,40.6321852,-116.059259,sdv-pii-07jyl,sdv-pii-zhoc3,sdv-pii-g20e8,,sdv-pii-b8r8a,0,03-07-2013,08/24/2013,12-12-2008,12/31/2008,-0.617963832,2.341757737,3.625318815,4.505288728,4,1,11000,2,CA,1,0,0,0,0,network_hosting,1,0,0,0,0,0,0,0,0,0,sdv-pii-ejt9v,0,0,0,1,0,0,1.800193024,1,acquired
93,3093,PA,38.50117236,-114.8005755,sdv-pii-ssv7m,sdv-pii-1cbtp,sdv-pii-b6bjm,,sdv-pii-yahb3,1,01-05-2001,10-08-2011,06/24/2006,08-12-2013,-0.147339812,0.092477399,4.048811956,8.815852817,8,2,11000,1,CA,0,0,0,0,1,advertising,0,0,1,1,0,0,0,0,0,0,sdv-pii-9gizx,1,1,1,0,1,0,1,1,acquired
94,3094,CA,44.37625217,-120.3721278,sdv-pii-f4tps,sdv-pii-983oa,sdv-pii-4njwg,sdv-pii-7wmxz,sdv-pii-ec44q,1,07/22/2007,,12/28/2007,02/16/2011,2.431506445,2.870676107,,4.9965412,4,4,11000,3,NC,0,0,0,0,0,hardware,0,0,0,0,0,0,0,0,0,1,sdv-pii-g7aa7,0,0,0,1,0,0,2.291612523,1,acquired
95,3095,CA,34.32480131,-65.3650305,sdv-pii-r9gtt,sdv-pii-n7h2q,sdv-pii-jvltz,sdv-pii-x1xdf,sdv-pii-93aum,0,09/15/2008,,07/20/2005,04-06-2014,2.55258294,4.070493018,3.76066774,2.372302016,9,3,11000,3,PA,0,0,0,0,0,software,0,1,0,0,0,0,0,0,0,1,sdv-pii-kdyo7,0,1,1,1,1,0,1.70698764,0,acquired
96,3096,NY,39.55846268,-100.1942458,sdv-pii-g527y,sdv-pii-tll4i,sdv-pii-jawgy,sdv-pii-qnonk,sdv-pii-m7jqf,1,12-06-2013,,12/13/2007,05/30/2005,2.127813916,7.334238146,3.381390652,1.111611947,3,3,11000,0,VA,0,0,0,0,0,semiconductor,0,0,0,0,0,0,0,0,0,0,sdv-pii-sdc2c,0,0,1,0,1,1,1.388054429,0,acquired
97,3097,NC,38.05772662,-75.45213779,sdv-pii-cqhr7,sdv-pii-imjgf,sdv-pii-6nr7l,,sdv-pii-a5vkm,1,12/28/2003,,09-08-1997,03/13/2009,0.832579879,1.079281346,3.695712369,,4,1,11000,2,CA,1,0,0,0,0,advertising,0,0,0,0,0,0,0,0,0,1,sdv-pii-ukc0j,0,0,0,1,0,0,2.568687393,1,acquired
98,3098,CA,37.61516966,-63.10266,sdv-pii-8anpv,sdv-pii-jbaaj,sdv-pii-ztrlo,sdv-pii-fo715,sdv-pii-ne7uk,1,12/28/2005,10-01-2011,08/28/2005,05-07-2011,-0.10030527,2.605948372,12.54630825,3.169664056,17,1,11000,1,MA,0,0,0,0,0,web,0,0,0,0,0,0,0,0,0,1,sdv-pii-ivhw3,0,0,1,1,1,0,1,1,closed
99,3099,CA,43.78505709,-76.52652007,sdv-pii-wbtvr,sdv-pii-c1qeo,sdv-pii-z6y4k,sdv-pii-2gfth,sdv-pii-xlvdc,0,02/17/2010,,09-12-2007,11-07-2010,0.664732737,20.47988964,3.96376711,5.295880148,6,1,798358,1,,0,0,0,0,0,software,0,1,1,0,0,0,0,0,0,0,sdv-pii-o7ol7,1,0,0,0,1,0,2.552142625,1,acquired
100,3100,CA,50.03841686,-116.7879723,sdv-pii-22jup,sdv-pii-wkqui,sdv-pii-ixtc2,,sdv-pii-yjwxt,1,03-07-2008,,01-04-2010,09/30/2012,1.434527004,7.17235032,12.70392936,,18,4,11000,3,CA,0,0,0,0,0,software,0,0,0,0,0,0,0,0,0,0,sdv-pii-u5g3i,0,0,1,0,0,0,1.671231478,1,acquired
101,3101,NY,48.99026491,-78.9064522,sdv-pii-92bfb,sdv-pii-drr18,sdv-pii-jf1tk,sdv-pii-4ew2z,sdv-pii-f3t43,1,01/15/2011,11/29/2006,02-06-2010,03/19/2012,2.52102698,5.312958428,13.40303462,5.215545813,14,2,12132385,2,CA,1,0,0,0,0,hardware,0,0,0,0,0,0,0,0,0,1,sdv-pii-765j4,0,0,0,0,0,0,1.190011601,0,closed
102,3102,MA,44.51676037,-118.4881166,sdv-pii-ph5bw,sdv-pii-uk5nv,sdv-pii-r909m,sdv-pii-0bd2y,sdv-pii-pinxu,1,12/15/2000,09-04-2011,10/13/2008,11/27/2006,-0.954961011,4.995609146,14.62149461,0.868410609,9,1,11000,0,CA,1,0,0,0,0,web,0,0,0,0,0,0,0,0,0,1,sdv-pii-ett2a,0,0,0,1,0,0,1,1,closed
103,3103,CA,41.81306287,-71.99273603,sdv-pii-lxg2d,sdv-pii-2ql9x,sdv-pii-7kfot,,sdv-pii-efups,0,06/23/2000,,11-02-2006,09-06-2012,4.933300614,2.824588483,,2.009864759,5,3,11000,1,DC,1,0,0,0,0,public_relations,0,0,0,0,0,0,0,0,0,0,sdv-pii-d92ax,0,0,0,0,1,0,1.449174375,0,acquired
104,3104,WA,39.59775742,-68.63570877,sdv-pii-v8f7r,sdv-pii-x36ay,sdv-pii-ijl9u,sdv-pii-l9f6q,sdv-pii-5vbd2,1,05/19/2009,,04/24/2006,01-06-2011,0.457180706,4.40599697,3.904827341,2.923940746,0,4,13126200,3,TX,0,0,0,0,0,semiconductor,0,0,0,0,0,0,0,0,0,1,sdv-pii-pmc7r,0,0,0,0,0,0,1.906204626,1,acquired
105,3105,TX,41.7432323,-64.83128689,sdv-pii-5ztma,sdv-pii-vspxc,sdv-pii-kkzs4,,sdv-pii-glmbw,0,03-05-2008,,01/14/2006,03/20/2008,-0.966266112,8.207841725,7.138659873,3.910300259,8,4,11000,6,CA,0,1,0,0,1,enterprise,0,0,0,0,1,0,0,0,0,0,sdv-pii-41wus,0,0,0,0,0,0,5.075650252,1,acquired
106,3106,ME,44.96220436,-70.08285458,sdv-pii-f8gj5,sdv-pii-6jvul,sdv-pii-sbopj,sdv-pii-f6yh5,sdv-pii-619aa,1,07/15/2003,,03-06-2010,04/14/2010,3.629974986,3.80516377,8.921851077,,11,5,10623030,0,NY,0,0,0,0,1,ecommerce,0,0,0,0,0,0,0,0,0,0,sdv-pii-i82sc,0,0,1,0,0,0,2.420189027,1,acquired
107,3107,CA,37.59674191,-115.5370317,sdv-pii-8tu60,sdv-pii-ucjig,sdv-pii-83s35,,sdv-pii-mxz79,1,11/26/2008,,05/18/2007,06-12-2007,1.972246957,4.119360278,,,0,2,11000,2,TX,0,0,0,0,1,enterprise,0,0,1,0,0,0,0,0,0,1,sdv-pii-mew01,0,0,0,1,1,1,1,0,acquired
108,3108,TX,37.52697695,-122.2553721,sdv-pii-lvile,sdv-pii-ceqnq,sdv-pii-sc24e,,sdv-pii-cium2,0,02-04-2013,,09/14/2005,05/16/2010,0.424902568,21.8959,,,0,4,13524551,3,WA,0,0,0,0,0,web,0,0,0,0,0,0,0,0,0,1,sdv-pii-faiqe,1,0,0,1,0,0,2.167235842,1,acquired
109,3109,NY,38.04255709,-119.4670849,sdv-pii-oj3du,sdv-pii-bx4ws,sdv-pii-yh6jz,sdv-pii-u057q,sdv-pii-2t8zb,1,03-07-2003,02/21/2008,12/14/2009,10/16/2007,3.232743388,1.684335518,2.731711095,1.169745203,4,2,11000,1,CA,1,0,0,0,1,public_relations,0,0,0,1,1,0,0,0,0,0,sdv-pii-fas91,0,0,0,0,0,1,3.424957792,1,acquired
110,3110,NY,47.53951718,-70.14111259,sdv-pii-50otm,sdv-pii-lqjy3,sdv-pii-czp7u,,sdv-pii-u1dcf,1,11/25/1999,04/14/2012,03/29/1998,06-11-2009,5.055616241,3.738511747,3.260062571,3.727361879,3,6,11000,2,OR,0,0,0,0,0,software,0,0,0,0,0,0,0,0,0,0,sdv-pii-2at49,0,1,0,1,1,0,1,1,acquired
111,3111,AZ,37.95508688,-122.0868247,sdv-pii-65l37,sdv-pii-xtykg,sdv-pii-wc6yh,,sdv-pii-bfrqn,1,07-07-2005,,02-05-2005,05-02-2010,5.245636418,9.565313435,3.211331636,,35,5,4603530,1,CA,0,1,0,0,0,analytics,1,0,0,0,0,0,0,0,0,0,sdv-pii-hxy8v,0,0,1,0,1,0,1.528078248,0,acquired
112,3112,CA,39.01241714,-64.25855153,sdv-pii-znpco,sdv-pii-2lzl1,sdv-pii-82hrp,sdv-pii-425dn,sdv-pii-91xv4,0,06/26/2002,,07/13/2012,07-01-2010,0.819719314,0.159420105,,,2,4,11000,2,FL,0,0,0,0,0,games_video,0,0,1,0,0,0,0,0,0,1,sdv-pii-qr92k,0,1,1,0,0,0,5.29447281,1,closed
113,3113,CA,42.85300311,-76.96070818,sdv-pii-ymo81,sdv-pii-9one0,sdv-pii-ghilg,,sdv-pii-ek6a1,1,07/21/2006,09-05-2011,01-12-2007,09-04-2007,0.818103876,2.183669563,1.973389791,3.214304862,22,5,11000,2,CO,1,0,0,0,0,web,0,1,0,0,0,0,0,0,0,0,sdv-pii-xlzwh,0,1,0,0,0,0,1,1,acquired
114,3114,CO,42.67528699,-68.17033739,sdv-pii-mqlh1,sdv-pii-4mmf6,sdv-pii-3xbxh,sdv-pii-gyir4,sdv-pii-nwgfe,0,04-11-2012,,03/27/2008,09-11-2008,3.297638759,2.698773144,,-2.319683783,7,5,11000,3,TX,0,0,0,0,0,web,0,0,0,0,0,0,0,0,0,0,sdv-pii-vt4ad,0,0,1,0,0,0,6.787793487,0,acquired
115,3115,NY,41.68997657,-77.35534871,sdv-pii-cvhm7,sdv-pii-jtqa7,sdv-pii-ryosv,,sdv-pii-jptjq,1,07/31/2004,,06/24/2013,07-11-2008,1.559610689,-0.058881919,3.982556396,4.855842362,3,2,11000,1,PA,0,0,0,0,1,security,0,0,0,0,1,0,1,0,0,1,sdv-pii-x53n1,0,1,1,1,1,0,6.25949167,1,closed
116,3116,CA,37.57271063,-67.95586863,sdv-pii-x5z0d,sdv-pii-e8q4z,sdv-pii-s333m,sdv-pii-xnxkh,sdv-pii-d6bju,1,08-10-2010,,07/19/2006,07/19/2010,0.974944883,2.94224398,3.019603633,4.284197618,6,3,11000,3,CA,1,0,1,0,0,mobile,0,0,0,0,0,1,0,0,0,1,sdv-pii-hbs63,1,1,1,1,0,0,1.926773328,1,closed
117,3117,CA,38.21240596,-117.2604986,sdv-pii-7y8e5,sdv-pii-mw2qf,sdv-pii-8pj7w,sdv-pii-96ypu,sdv-pii-tw8km,1,04/22/2010,,04-10-2001,10-07-2011,0.361063565,5.478141522,3.892726083,3.596384765,1,3,11000,2,CA,0,0,0,0,0,web,0,0,0,0,0,0,0,0,0,0,sdv-pii-otrdf,0,0,0,0,0,0,1,1,acquired
118,3118,CT,37.78879344,-83.70554514,sdv-pii-wb9za,sdv-pii-24pu0,sdv-pii-1c8hs,,sdv-pii-ktz2x,0,08/31/2007,,01-02-2011,12/24/2012,0.912144901,9.672230821,0.53397558,4.378448305,6,1,11000,1,TX,0,0,0,0,0,web,0,0,1,0,0,0,0,0,0,0,sdv-pii-cpsc9,0,0,0,0,0,0,1.523667644,1,closed
119,3119,IL,40.64703906,-118.2511651,sdv-pii-gjvzn,sdv-pii-5u8qe,sdv-pii-mbezl,sdv-pii-io9eg,sdv-pii-c2tjr,1,03/13/2005,09/15/2011,07/15/2008,03-10-2009,1.448820963,7.896651538,3.647973352,,0,5,11000,2,FL,0,0,0,0,0,ecommerce,0,0,1,0,0,0,0,0,0,1,sdv-pii-mqgxh,0,0,0,0,0,0,1.213334835,1,closed
120,3120,TX,37.17640731,-75.65756785,sdv-pii-50bzm,sdv-pii-2hb1o,sdv-pii-c7hih,sdv-pii-cp2k1,sdv-pii-fcu1n,1,03/28/2011,,06-12-2004,03/31/2011,-0.939094864,7.44833909,3.858605802,3.94681509,2,1,11000,0,CA,0,0,0,0,1,web,0,1,0,0,0,0,0,0,0,1,sdv-pii-ex21p,0,1,0,1,0,0,1.105918663,1,acquired
121,3121,CA,37.50343489,-104.5987588,sdv-pii-g5yvf,sdv-pii-4w79k,sdv-pii-eawi7,,sdv-pii-1r0kb,1,07/25/2005,,07/17/2005,03-01-2007,2.042135234,2.859734595,3.119914297,5.891719136,0,2,11000,3,CA,1,0,0,0,1,web,0,0,0,0,0,0,0,0,0,0,sdv-pii-iemr4,1,0,1,0,1,0,2.262221041,1,acquired
122,3122,CA,38.1889268,-76.60090644,sdv-pii-bncnf,sdv-pii-tt9iw,sdv-pii-dzwxw,sdv-pii-5u7l1,sdv-pii-aoaf6,1,08-05-2009,09-09-2011,07-05-2007,07/14/2009,7.720462532,7.190233702,3.58204731,3.804407712,5,1,11000,2,CA,0,0,1,0,0,news,0,0,1,0,1,0,0,0,0,1,sdv-pii-aw11q,0,0,0,1,1,0,1.117810218,1,acquired
123,3123,CA,43.4977683,-66.44160323,sdv-pii-lf407,sdv-pii-ylxpp,sdv-pii-xllak,sdv-pii-u6tmc,sdv-pii-w22xj,0,12-10-2013,10/25/2011,07/22/2008,10-05-2010,1.60544495,2.551826516,4.08119065,-0.195072919,22,3,11000,1,PA,1,0,0,0,0,mobile,0,0,1,0,0,0,0,0,0,0,sdv-pii-f33a3,1,0,0,0,1,0,1.201205147,1,acquired
124,3124,CA,37.98118393,-73.37674759,sdv-pii-nuxj6,sdv-pii-sbzra,sdv-pii-p8b75,sdv-pii-7d6rz,sdv-pii-7ccfg,1,04/28/2012,,08-06-2009,10-08-2009,7.331846095,14.57508532,13.09985986,0.455653941,7,5,11000,0,VA,1,0,0,0,0,software,0,0,0,0,0,0,0,0,0,0,sdv-pii-k4wxa,0,1,0,0,0,0,1.576884123,1,acquired
125,3125,NY,35.58499366,-121.1419773,sdv-pii-aazn6,sdv-pii-7a7mj,sdv-pii-mxzb7,sdv-pii-zjvqn,sdv-pii-aq5p8,1,09-10-2001,01/20/2012,07-12-2005,03/17/2010,0.600372907,3.447845,3.697724568,-0.436748592,10,2,11000,1,CA,0,1,0,0,1,games_video,0,0,0,0,0,0,0,0,0,0,sdv-pii-zwyke,0,0,0,1,1,1,2.530281215,1,acquired
126,3126,CA,37.50346017,-74.68292297,sdv-pii-0dtw6,sdv-pii-kit1y,sdv-pii-qd382,,sdv-pii-zwz7x,1,02-11-2004,,07-05-2008,11/14/2013,11.10302912,5.241090853,3.339690797,,0,6,11000,0,CA,0,0,0,0,1,mobile,1,0,0,0,0,0,0,0,0,0,sdv-pii-05kae,0,1,0,0,1,1,1,0,closed
127,3127,CA,50.57192517,-88.86597691,sdv-pii-p2qoa,sdv-pii-quh21,sdv-pii-rs3ps,,sdv-pii-xcnne,0,02/18/2004,,07/30/2006,11/15/2010,1.394158777,5.86236986,4.882563575,-1.026151825,4,1,11000,3,PA,0,0,0,0,0,cleantech,0,0,0,0,0,0,0,0,0,0,sdv-pii-1brp3,0,0,0,0,0,0,1.323919472,1,acquired
128,3128,CA,37.27591894,-117.8428707,sdv-pii-0w1co,sdv-pii-bj41i,sdv-pii-skvu2,sdv-pii-0imzn,sdv-pii-1vn6e,0,11/13/2012,,04/19/2010,11-05-2012,1.350849412,6.757933382,4.222153398,5.316342364,6,2,11000,3,CA,0,0,0,0,0,software,0,0,0,0,0,0,0,0,0,0,sdv-pii-vo9m9,1,1,0,0,1,0,2.00672718,1,closed
129,3129,CA,37.90515206,-72.48349953,sdv-pii-2sc0t,sdv-pii-p4vxh,sdv-pii-e5ar9,sdv-pii-epmmp,sdv-pii-7s2df,1,11/21/2004,10/27/2011,03-08-2006,02/19/2010,2.292001493,3.790924416,4.318685716,-2.80346879,0,1,3513976,1,MN,0,0,0,0,1,biotech,0,1,0,0,0,0,0,0,0,1,sdv-pii-ku475,0,0,1,1,0,0,1.678289034,1,acquired
130,3130,CA,40.26877394,-122.389252,sdv-pii-m0rsk,sdv-pii-evait,sdv-pii-09ec5,sdv-pii-2r4ig,sdv-pii-43dwz,0,09/23/2002,09/24/2011,09/27/2006,02/19/2011,-0.0116146,0.26732619,15.84040035,5.964077528,6,3,11000,1,CA,1,0,0,0,0,mobile,0,0,0,1,0,0,0,0,0,0,sdv-pii-9wzmo,0,0,0,0,1,0,1.120285901,1,acquired
131,3131,CA,37.72245059,-117.7428608,sdv-pii-c2odo,sdv-pii-25izh,sdv-pii-dzgy5,,sdv-pii-xyu1h,1,11/28/1998,08/31/2011,08/30/2006,04/27/2014,1.480748726,0.877157467,,2.467228934,5,1,11000,0,CA,0,0,0,0,1,analytics,0,0,0,0,0,0,0,0,0,1,sdv-pii-kugz1,0,0,0,1,1,0,1.317997078,1,closed
132,3132,CA,36.2422994,-115.4459219,sdv-pii-6z8zg,sdv-pii-ixjpv,sdv-pii-d9yt2,sdv-pii-m12on,sdv-pii-rilfn,1,08/22/2007,,05/28/2007,01-06-2009,1.584762832,12.40143482,10.99475936,,4,1,11000,1,CA,1,0,0,0,0,health,0,0,0,0,0,0,0,0,0,1,sdv-pii-jo09a,0,0,0,1,0,0,2.064801765,1,acquired
133,3133,CA,38.29606834,-120.9285346,sdv-pii-5jnwm,sdv-pii-6xnh5,sdv-pii-gj18g,,sdv-pii-75qra,0,12-07-2003,10/20/2011,03/19/2007,01-08-2009,-0.204477472,0.257573955,3.873583364,-3.209118653,7,4,11000,3,MD,1,0,0,0,0,enterprise,0,1,0,0,0,0,0,0,0,0,sdv-pii-4shmw,0,0,0,1,0,0,1.119474972,1,closed
134,3134,CA,37.80886206,-75.60424381,sdv-pii-c28h1,sdv-pii-dh244,sdv-pii-pzvaf,sdv-pii-0nqc4,sdv-pii-6hlw8,0,01-08-2011,08/20/2008,06/20/2007,07-07-2007,0.159237129,2.544646914,,3.996462111,0,1,11000,4,MA,1,1,0,0,0,public_relations,0,1,1,0,0,0,0,0,0,0,sdv-pii-4yvb5,0,0,1,1,0,0,1,0,acquired
135,3135,CA,38.32247996,-117.1583864,sdv-pii-ip0ra,sdv-pii-zjj8a,sdv-pii-8jre7,sdv-pii-pvu2r,sdv-pii-3cujc,1,03-08-2009,09/17/2011,02/19/2006,03-02-2011,0.119350287,5.714424026,3.939011302,4.189532243,3,4,17803026,2,NY,0,0,0,0,0,software,0,0,0,0,1,0,0,0,0,0,sdv-pii-f6tbc,1,0,0,0,0,0,3.029877946,1,closed
136,3136,CA,38.13178203,-76.13963888,sdv-pii-oz8o5,sdv-pii-ial9x,sdv-pii-147iv,,sdv-pii-mp3oc,0,08/19/2005,,06/28/2009,06-02-2012,1.421452471,13.10465313,4.383749875,4.440052429,8,1,11000,1,CA,0,0,0,0,1,advertising,0,0,0,0,0,0,0,0,0,0,sdv-pii-bzt37,0,0,0,0,1,0,1.862275532,1,acquired
137,3137,TX,39.3147169,-122.5395576,sdv-pii-06iie,sdv-pii-mavv5,sdv-pii-rkiqz,,sdv-pii-kcp1k,0,10/14/2007,,01-07-2007,03-11-2010,-1.036241405,13.09294679,2.955488403,2.61365123,39,5,11000,1,CA,0,0,0,0,1,software,0,0,0,0,0,0,0,0,0,1,sdv-pii-utr16,1,0,0,0,0,0,2.252355056,1,acquired
138,3138,MA,34.26282939,-122.5860462,sdv-pii-x8j0x,sdv-pii-zs050,sdv-pii-61sq9,,sdv-pii-v2889,0,01/26/1998,,09/26/2003,01/19/2007,0.989693806,3.605372384,7.535550811,-0.61624991,7,5,11000,3,CA,0,1,0,0,1,biotech,0,0,0,0,0,0,0,0,0,0,sdv-pii-dkdrj,0,1,1,1,1,0,3.792520981,1,acquired
139,3139,CA,37.01572452,-70.11712192,sdv-pii-xvj8z,sdv-pii-fdygg,sdv-pii-1oip4,,sdv-pii-ibgxo,0,12-02-2014,08/24/2011,04-10-2005,03/22/2006,0.932857829,3.058928176,9.232474677,-3.94411783,2,2,11000,1,NC,0,0,0,0,0,cleantech,0,0,0,0,0,0,0,0,0,0,sdv-pii-qoqca,0,0,0,1,0,0,1.065756392,1,acquired
140,3140,NY,41.11866501,-117.7422206,sdv-pii-uhc9g,sdv-pii-03n50,sdv-pii-9otgy,,sdv-pii-xg04w,1,09/16/2007,10-09-2011,09-01-2012,01-06-2013,2.036180759,5.853285603,,4.147095441,2,3,11000,3,CA,0,0,0,0,0,web,0,0,0,0,0,0,0,0,0,1,sdv-pii-20li7,0,1,0,0,0,0,2.721526321,1,acquired
141,3141,CA,37.79036365,-66.43147103,sdv-pii-8fqky,sdv-pii-uqpp6,sdv-pii-amiyt,,sdv-pii-xqtcd,0,10/13/2008,,07/22/2013,07/31/2010,2.526317924,4.452205683,,0.60961428,6,3,11000,3,DC,1,0,0,0,0,enterprise,0,0,0,0,0,0,0,0,0,0,sdv-pii-yocv4,1,1,1,1,0,0,3.583269852,1,acquired
142,3142,CA,37.73750767,-78.75155614,sdv-pii-rde1r,sdv-pii-tu7o7,sdv-pii-qp6fo,sdv-pii-g4fmn,sdv-pii-a1z9d,0,11-12-2014,,05-12-2006,05/22/2007,2.089399714,-0.512297179,,4.667879021,0,2,11000,1,CA,1,0,0,0,0,cleantech,0,0,0,0,0,0,0,0,0,0,sdv-pii-d68wt,0,0,1,0,1,0,1.350465596,0,acquired
143,3143,CA,38.22106391,-64.01205742,sdv-pii-0mqiq,sdv-pii-xnb35,sdv-pii-5ydo3,,sdv-pii-hluda,1,04-04-2010,09-05-2011,11/20/2007,01/29/2010,3.962067826,3.456862356,12.25876542,4.481359132,10,3,11000,1,CA,0,0,0,0,0,advertising,0,1,0,0,0,0,0,0,0,0,sdv-pii-th2m4,0,0,0,1,1,1,2.807222899,1,acquired
144,3144,TX,33.79012455,-68.19329141,sdv-pii-7buum,sdv-pii-eedk4,sdv-pii-a3jlh,sdv-pii-ngc53,sdv-pii-x15pc,1,03-08-2005,09/24/2011,02/26/2005,10/26/2013,6.835084063,2.533869247,3.940680694,,2,3,11000,0,CA,1,0,0,0,0,mobile,0,0,0,0,0,0,0,0,0,0,sdv-pii-gmpj7,0,0,1,1,0,0,1,1,acquired
145,3145,CA,30.09141033,-64.20240171,sdv-pii-cr4j3,sdv-pii-63cvk,sdv-pii-gggkb,,sdv-pii-zrhqe,1,08/15/2003,,07-07-2007,12/14/2009,-0.236321167,2.049433645,,5.089239414,8,1,11000,1,CA,0,0,0,0,0,cleantech,0,0,0,0,0,0,0,0,0,0,sdv-pii-b3njl,0,1,0,0,1,0,3.340317655,1,acquired
146,3146,MA,34.92585946,-117.7426871,sdv-pii-w7itc,sdv-pii-0j9ln,sdv-pii-7uss8,sdv-pii-qucab,sdv-pii-qb8p1,1,01-05-2007,,07-09-2005,12/30/2009,0.046895302,5.30701061,3.855802491,3.937638772,0,7,11000,1,MA,0,0,0,0,0,search,0,0,0,0,0,0,0,0,0,0,sdv-pii-nvtrs,0,1,1,0,1,0,1.316152606,1,acquired
147,3147,MA,43.62035763,-116.4429728,sdv-pii-jytva,sdv-pii-9esfx,sdv-pii-bp54x,sdv-pii-bb096,sdv-pii-c13lv,1,08/26/1999,10-12-2011,03/21/2009,10-08-2011,3.619047315,1.663050144,,-0.136679846,0,3,11000,1,CA,1,0,0,0,0,software,0,0,0,0,1,0,0,0,0,0,sdv-pii-khp25,0,1,0,0,0,0,1.360276724,1,acquired
148,3148,CA,38.2714849,-114.2454433,sdv-pii-2uwsj,sdv-pii-fcfr8,sdv-pii-2x5tr,sdv-pii-bdlpz,sdv-pii-6enul,0,10/16/2006,,07/21/2007,04/16/2011,-1.101191321,2.073127201,3.876005576,,12,3,11000,0,CA,0,0,0,0,0,games_video,0,0,0,0,0,0,0,0,0,1,sdv-pii-wdycg,0,0,1,1,1,1,1,1,closed
149,3149,NY,41.72155006,-122.1927541,sdv-pii-34oae,sdv-pii-8gsuh,sdv-pii-0u0px,,sdv-pii-xgx0d,1,02-10-2003,,06-07-2007,11/13/2005,1.348835237,8.552142364,,3.609754251,4,3,11000,3,MA,0,0,0,0,1,web,1,0,0,0,0,0,0,0,0,1,sdv-pii-2n6wh,0,0,1,1,0,1,2.568583403,1,closed
150,3150,CA,51.86748595,-64.03300651,sdv-pii-40328,sdv-pii-ab5l0,sdv-pii-jae3m,,sdv-pii-ff419,1,10/19/2008,11-04-2011,05-10-2005,09/14/2007,0.399077482,5.760575882,3.592723852,1.49591318,0,3,3078405,3,CA,1,0,0,0,0,software,1,0,0,0,0,0,0,0,0,1,sdv-pii-ojoh1,0,1,1,0,0,1,3.642458436,1,acquired
151,3151,NY,37.95963138,-69.43324709,sdv-pii-a6fo8,sdv-pii-dqz4b,sdv-pii-025js,,sdv-pii-ds99r,1,08-12-2007,08/27/2011,07-12-2012,10/22/2009,1.490426151,2.195662299,14.66249511,4.008368712,16,2,11000,2,CA,0,0,0,0,0,software,0,0,0,0,0,0,0,0,0,1,sdv-pii-qtib5,0,0,1,0,0,0,2.627663026,1,acquired
152,3152,DC,37.33140794,-116.9940219,sdv-pii-2ek5i,sdv-pii-zieso,sdv-pii-fair5,,sdv-pii-pbtq2,1,06/13/2012,,11/28/2011,06-07-2008,0.3233832,7.055065823,9.595589287,4.395185878,12,1,7718892,3,CA,1,1,0,0,1,network_hosting,0,1,0,0,0,0,0,0,0,1,sdv-pii-s2iem,0,0,1,0,0,0,4.844459032,1,acquired
153,3153,WA,38.10401269,-119.5809479,sdv-pii-51d9q,sdv-pii-kk27q,sdv-pii-lvzlv,,sdv-pii-2t5qd,1,02/15/2009,10-11-2011,03/31/2008,10/23/2009,1.192243986,2.869450173,,,9,4,11000,0,NC,0,0,0,0,0,search,0,0,0,0,0,0,0,0,0,1,sdv-pii-ksx0e,0,0,0,0,1,0,1.71271532,0,acquired
154,3154,WA,37.93049537,-115.3496662,sdv-pii-qwxu7,sdv-pii-vpt3w,sdv-pii-rp425,,sdv-pii-imolv,1,01-07-2010,,09-04-2011,07-06-2009,-0.170415806,4.732826214,3.553097865,4.060453863,1,2,11637271,3,CA,0,0,0,0,0,software,0,0,0,0,0,0,0,0,0,1,sdv-pii-npuqr,0,0,0,1,1,0,2.022694927,1,acquired
155,3155,NY,38.3661368,-117.265876,sdv-pii-0kz8n,sdv-pii-zi9j7,sdv-pii-lsqtu,sdv-pii-9xmwo,sdv-pii-dlxvd,1,12-01-2001,,11-08-2006,08/31/2010,3.46801528,0.804589283,9.825718298,0.994942726,3,4,11000,0,CA,1,0,0,0,0,advertising,1,0,0,0,0,0,0,0,0,0,sdv-pii-twfuk,0,1,0,1,0,0,1,1,closed
156,3156,CA,37.60066977,-122.6131187,sdv-pii-ukxil,sdv-pii-msyuj,sdv-pii-24o2p,,sdv-pii-4yt1q,1,04/30/2008,09-03-2011,06/30/2004,07/21/2011,-0.905231771,4.029179592,,-3.46645054,8,2,4624435,1,CA,0,0,0,0,1,mobile,0,1,0,0,0,0,0,1,0,1,sdv-pii-tltvk,0,0,0,0,0,0,2.396435149,1,closed
157,3157,TX,41.42012543,-122.4384952,sdv-pii-xc4yu,sdv-pii-fu2ho,sdv-pii-yb9am,sdv-pii-sn8r2,sdv-pii-7cq34,1,09-03-2002,,07/26/2004,05-08-2009,2.270260709,3.983426714,11.85678545,-1.711317656,14,6,11000,0,CA,0,0,0,0,0,mobile,0,0,0,0,0,0,0,0,0,0,sdv-pii-vkabe,0,0,0,1,0,0,1.406372264,1,closed
158,3158,CA,37.22763324,-121.8468315,sdv-pii-3kycl,sdv-pii-ol5zs,sdv-pii-7itrc,sdv-pii-a5cao,sdv-pii-8d5ju,1,12-12-1998,10/18/2011,03/27/2006,09/23/2011,-0.286948882,2.409409102,4.069094117,8.900134717,5,2,11000,1,CA,1,0,0,0,0,software,0,0,0,0,0,0,0,0,0,0,sdv-pii-t9gp6,0,0,1,0,0,0,1.02664956,0,closed
159,3159,CA,48.73695802,-71.52832363,sdv-pii-s2ef7,sdv-pii-xf5ji,sdv-pii-pgvzz,,sdv-pii-mvh5v,1,12-02-2010,,06/23/2007,01/27/2013,1.128382915,21.8959,3.030438868,-0.048134552,9,2,11000,3,TX,1,0,0,0,0,advertising,0,1,0,0,0,0,0,0,0,1,sdv-pii-f7cov,1,0,1,1,0,0,1.228555366,1,acquired
160,3160,CA,37.55168291,-83.10111653,sdv-pii-ic17n,sdv-pii-76sc6,sdv-pii-57obe,,sdv-pii-y3d67,1,12/25/1999,09-08-2011,07/16/2008,08-02-2011,0.313142638,1.756934973,3.185492514,,11,1,11000,3,CA,1,0,0,0,0,mobile,0,0,0,0,0,0,0,0,0,0,sdv-pii-qgugc,0,0,0,1,0,0,3.997682465,1,closed
161,3161,CA,37.61138305,-118.5045364,sdv-pii-ycdob,sdv-pii-6xxq5,sdv-pii-r8em1,sdv-pii-je902,sdv-pii-00yty,1,09-07-2012,,02/13/2010,02/21/2007,6.149383824,6.674975663,,4.799152885,0,3,11000,3,CA,0,0,0,0,0,software,0,0,0,0,0,0,0,0,0,1,sdv-pii-ufj3h,0,1,0,1,0,0,1,1,acquired
162,3162,NY,47.25231504,-122.7569561,sdv-pii-mcgwc,sdv-pii-qlvv5,sdv-pii-aq90i,,sdv-pii-v0359,0,11/16/2009,,05/31/2007,03-07-2009,2.165699566,6.476716923,3.742135101,5.143241428,6,4,11000,2,CA,1,0,0,0,0,software,0,0,0,0,0,0,0,0,0,0,sdv-pii-fnswa,0,0,0,0,1,0,1,1,acquired
163,3163,MA,37.88309251,-115.335752,sdv-pii-arst5,sdv-pii-khcvu,sdv-pii-jmjv5,sdv-pii-sw73e,sdv-pii-gzztl,1,12/23/2006,,04/25/2007,06/29/2014,0.496977552,2.141827678,3.010560285,,36,1,11000,0,CA,1,0,0,0,0,search,0,0,0,0,0,0,0,0,0,1,sdv-pii-uewkc,1,0,1,0,0,0,1,1,closed
164,3164,CA,42.67635692,-75.69022406,sdv-pii-niamd,sdv-pii-b1m6u,sdv-pii-yc52n,sdv-pii-xv1li,sdv-pii-8r90j,0,02/13/2000,,04-11-2010,03/26/2009,0.628779689,0.219345289,9.753448045,1.694256885,0,4,11000,0,CA,0,0,0,0,0,public_relations,0,0,0,0,0,0,0,0,0,0,sdv-pii-c3ye3,0,0,1,0,0,0,1.489758674,1,acquired
165,3165,CA,37.69893607,-69.07751441,sdv-pii-yj8vs,sdv-pii-cauf0,sdv-pii-ssa46,sdv-pii-d9c7i,sdv-pii-nxgnu,0,02-12-2006,02/20/2012,04/29/2006,07-01-2011,2.154323751,6.906470334,3.002225561,,17,1,11000,3,CA,0,0,0,0,0,web,0,0,0,0,0,0,0,0,0,0,sdv-pii-c31h4,0,1,0,0,1,0,1,1,acquired
166,3166,WA,38.06853843,-115.0238081,sdv-pii-wvpa6,sdv-pii-jj52o,sdv-pii-q2zhk,sdv-pii-26qqx,sdv-pii-dsa1q,1,09/14/2005,,06/29/2009,04/17/2010,4.740524494,1.209311061,3.660816279,5.418961583,4,3,11000,1,CA,1,0,0,0,0,web,0,1,0,0,1,0,0,0,0,1,sdv-pii-n9fgz,0,0,0,1,1,0,4.97265277,1,closed
167,3167,TN,37.61002225,-118.5473991,sdv-pii-mukf7,sdv-pii-9u23p,sdv-pii-borgd,,sdv-pii-hr4qb,1,05-03-2000,,04/16/2003,06/27/2011,1.618312563,0.484892546,15.04973696,3.750171717,10,1,11000,2,CA,0,0,0,0,0,enterprise,0,0,0,0,0,0,0,0,0,0,sdv-pii-f4ljh,0,0,1,1,0,1,1.36605115,1,closed
168,3168,CA,38.61458841,-116.813308,sdv-pii-ry46f,sdv-pii-3qwub,sdv-pii-52p5m,,sdv-pii-h3em1,0,05/31/2010,08/26/2011,06/18/2010,06/14/2012,7.238266206,0.776635172,3.923258072,,8,3,11000,3,CA,0,0,0,0,1,software,0,0,0,0,0,0,0,0,0,1,sdv-pii-gpkso,0,0,0,1,0,0,2.471769877,1,closed
169,3169,OR,48.65462558,-118.2796934,sdv-pii-yffw0,sdv-pii-9ncr3,sdv-pii-jvmnp,sdv-pii-hagtr,sdv-pii-tuz9d,1,04-01-2003,,08/31/2006,07-11-2006,0.7541222,0.486624911,3.491951659,2.731830904,4,1,11000,1,CA,0,0,0,0,0,mobile,0,0,1,0,0,0,0,0,0,1,sdv-pii-suo28,0,0,1,0,1,0,1.067873399,1,acquired
170,3170,CA,37.4362667,-114.6620543,sdv-pii-higrb,sdv-pii-8x2j8,sdv-pii-1byp8,,sdv-pii-7bqfj,1,11/18/2011,,10/15/2009,12/18/2009,0.556315468,6.591615372,2.939168037,4.615283503,0,1,11000,0,NY,1,0,0,0,0,software,0,1,0,0,0,1,0,0,0,0,sdv-pii-ua36m,0,0,1,0,1,0,2.405023581,1,acquired
171,3171,CA,35.49719539,-62.99870993,sdv-pii-kj6o1,sdv-pii-uuqgz,sdv-pii-f1umb,sdv-pii-fatr9,sdv-pii-vgsvj,1,08-10-2014,,08/20/2009,06/13/2010,1.863506033,8.423643382,4.011895538,9.653830988,0,3,11000,2,CA,0,0,0,0,0,web,0,0,0,0,0,0,0,0,0,1,sdv-pii-es7sr,0,0,0,1,1,0,1.55985998,1,acquired
172,3172,CA,43.75160181,-72.79249277,sdv-pii-4yai9,sdv-pii-8owoj,sdv-pii-j04q1,sdv-pii-pwd9f,sdv-pii-yexcy,0,08/21/2006,,06/25/2007,08/20/2014,-0.424351798,1.834838336,3.167595909,4.538292787,1,3,11000,1,CA,0,0,0,0,1,news,0,0,0,0,0,0,0,0,0,1,sdv-pii-cpp4o,0,0,1,0,0,0,1.921491276,1,acquired
173,3173,CA,40.64121229,-88.18252388,sdv-pii-jh8fx,sdv-pii-x47x5,sdv-pii-4dafn,sdv-pii-eyb7a,sdv-pii-xhize,1,09/23/2005,,04/17/2009,12-11-2006,2.760467939,5.23797513,,4.260029517,5,3,11000,0,IL,0,0,0,0,0,messaging,0,0,0,0,0,0,0,0,0,0,sdv-pii-3ptco,1,0,1,0,0,0,1.214195243,1,acquired
174,3174,CA,39.68210026,-118.0037772,sdv-pii-xrf9z,sdv-pii-34i8z,sdv-pii-bh1kp,,sdv-pii-2gqgj,1,03-05-2005,,06/14/2007,01/25/2012,0.550145506,1.736655895,1.823549496,0.382224687,6,4,4093128,3,NY,1,0,0,0,0,mobile,0,0,0,0,0,0,0,0,0,0,sdv-pii-t1n3n,0,0,0,1,0,0,1.220068422,1,acquired
175,3175,NY,40.65851561,-117.1591103,sdv-pii-7s1ds,sdv-pii-u0vk7,sdv-pii-2bfc9,sdv-pii-npix0,sdv-pii-jaro0,1,03/24/1999,,04-06-2010,02/19/2013,5.091937176,5.545032296,7.798215092,,15,1,11000,2,CA,0,0,0,0,0,security,0,0,0,0,0,0,0,0,0,1,sdv-pii-75itj,0,0,1,0,1,0,3.156911712,1,acquired
176,3176,CA,48.96852405,-97.76084294,sdv-pii-zjp22,sdv-pii-ovma6,sdv-pii-a8y90,,sdv-pii-5hp2j,1,08/25/2003,09-11-2011,05/17/2009,06/27/2010,3.539420852,21.8959,3.8888361,-0.467514485,0,1,11000,3,MI,0,1,1,0,0,web,0,0,0,0,0,0,0,0,0,0,sdv-pii-dkplr,0,0,0,0,0,1,1.652173587,1,acquired
177,3177,WA,38.71953574,-68.32952756,sdv-pii-rdga6,sdv-pii-0hiic,sdv-pii-1k192,sdv-pii-orqdk,sdv-pii-aitpk,1,02/13/2007,,08/26/2003,03-06-2008,0.594500417,2.024736938,,0.38493655,5,3,11000,3,CA,0,0,0,0,0,mobile,0,0,0,0,0,0,0,0,0,1,sdv-pii-rq579,0,0,0,1,0,0,2.002568163,1,acquired
178,3178,MI,38.13195944,-74.6642338,sdv-pii-0b6w0,sdv-pii-sxgo6,sdv-pii-mj1qu,sdv-pii-svmi9,sdv-pii-0l6cg,1,07/14/2002,10/18/2011,07/22/2006,09/20/2007,0.97807324,0.142611037,3.396149454,3.608241759,3,4,11000,1,MA,1,0,0,0,1,travel,0,0,0,0,0,0,0,0,0,1,sdv-pii-mkp1b,0,0,0,0,0,0,2.486960868,1,closed
179,3179,PA,40.64047622,-61.46992506,sdv-pii-2zki1,sdv-pii-r394i,sdv-pii-fc3sg,,sdv-pii-velc2,1,07/21/2007,,04/24/2008,01/27/2010,0.953653136,3.112436613,16.43544117,0.081767363,7,3,11000,3,CA,1,0,0,0,0,web,0,0,0,0,0,0,0,0,0,0,sdv-pii-txcbg,1,0,0,0,0,1,1.126893752,1,acquired
180,3180,CA,42.77620808,-76.82464365,sdv-pii-1i42k,sdv-pii-jxmw9,sdv-pii-btg7w,sdv-pii-ovyvs,sdv-pii-pcfvp,1,03/14/2003,10/14/2011,06-04-2010,05-03-2007,1.971918639,2.473821072,24.6849,-0.952770961,4,6,19588189,2,CA,1,1,0,0,0,games_video,0,0,0,0,0,0,0,0,0,1,sdv-pii-4u1ny,0,0,1,0,0,0,3.694545729,1,acquired
181,3181,CA,36.6211404,-117.1651204,sdv-pii-l4hsm,sdv-pii-5n6qu,sdv-pii-z7v6b,sdv-pii-njnqb,sdv-pii-oc3yo,0,06-06-2007,10-05-2011,10/22/2006,12-07-2008,1.833005594,3.65268706,4.139555901,2.185033942,12,3,11000,0,CA,1,0,0,0,0,semiconductor,0,0,0,0,0,0,0,0,0,1,sdv-pii-qt9wn,1,0,0,0,1,0,2.504514704,1,acquired
182,3182,IL,37.51337155,-66.01021721,sdv-pii-069qk,sdv-pii-2d3oe,sdv-pii-4chld,,sdv-pii-knk2k,1,08/16/2003,01-08-2007,09/22/1998,06-06-2010,0.866335732,1.290322443,3.923293094,4.472852198,1,3,11000,4,CA,0,0,0,0,1,search,0,0,0,1,0,0,0,0,0,0,sdv-pii-5ouag,0,0,0,1,0,0,1.16266748,1,acquired
183,3183,CA,44.53193227,-65.32918271,sdv-pii-gypb6,sdv-pii-06pgj,sdv-pii-v7qk3,sdv-pii-crlnl,sdv-pii-671fp,1,06/15/2004,,03-06-2007,12/16/2011,5.015590505,5.304755533,4.062446027,4.699961343,9,1,11000,3,ME,1,0,0,0,0,enterprise,0,0,0,0,0,0,0,0,0,0,sdv-pii-qwttf,0,0,1,0,0,0,4.387283535,1,closed
184,3184,MA,49.19607762,-78.98950872,sdv-pii-qlgkf,sdv-pii-wnoa7,sdv-pii-3lt30,,sdv-pii-jpec4,1,11/22/2004,,02/13/2009,06/16/2013,1.906252813,1.617917826,,4.881505421,1,1,11000,1,CA,0,1,0,0,0,social,0,0,0,0,0,1,0,0,0,1,sdv-pii-zx26j,0,0,0,0,0,1,1.726136406,0,closed
185,3185,CA,37.7354343,-66.60611148,sdv-pii-4ikyk,sdv-pii-xz34n,sdv-pii-x6ta8,sdv-pii-srlq5,sdv-pii-1x54l,0,07-03-2009,,05-06-2007,09/19/2013,2.42106894,12.40898982,3.906324872,4.850984665,0,4,7054176,1,CA,0,0,0,0,0,web,0,0,0,0,0,0,0,0,0,0,sdv-pii-9krpe,1,0,0,0,0,0,3.286377632,1,closed
186,3186,CA,39.85702641,-65.74119498,sdv-pii-h4wf4,sdv-pii-8784h,sdv-pii-e37dp,,sdv-pii-s1p11,0,07/26/2014,10/20/2011,04-09-2006,01/27/2011,1.68838809,3.234373531,9.678859193,4.901625572,20,1,11000,3,CA,0,0,0,0,0,web,0,0,0,1,0,0,0,0,0,0,sdv-pii-qv6yc,1,0,1,1,0,0,3.558951405,1,acquired
187,3187,MA,41.18993622,-68.98450546,sdv-pii-99x1c,sdv-pii-okvf1,sdv-pii-uc8zp,sdv-pii-4rz8a,sdv-pii-3bjd8,1,06/13/2006,,03-02-2006,04/30/2009,-0.161109363,4.335582817,3.680490521,4.835159383,0,2,11000,4,IL,0,0,0,0,0,social,0,1,0,0,0,0,0,0,0,0,sdv-pii-43ndn,0,1,1,1,0,0,1.879933755,1,acquired
188,3188,NY,41.82541806,-69.40805644,sdv-pii-ijo7g,sdv-pii-zphmw,sdv-pii-5b5lj,sdv-pii-iaa7i,sdv-pii-1m65k,1,08-01-2011,09/25/2011,10/13/2008,11/26/2013,6.733311906,3.34690972,,-1.133869828,0,1,11000,3,GA,0,0,0,0,1,ecommerce,0,0,0,0,0,0,0,0,0,0,sdv-pii-ilccy,0,0,1,0,0,0,1.127402556,1,acquired
189,3189,CA,42.82618839,-64.56247296,sdv-pii-8nya2,sdv-pii-fvkxp,sdv-pii-6k6da,sdv-pii-ots88,sdv-pii-ri74l,1,05/17/2006,08/16/2011,02-09-2003,01/19/2013,1.674796975,6.329958272,3.269875573,,1,2,3862422,3,CA,0,1,0,0,0,games_video,0,0,0,0,0,0,0,0,0,0,sdv-pii-m70pr,1,0,1,0,0,0,5.81485181,1,closed
190,3190,CA,37.227099,-68.41750669,sdv-pii-lhs65,sdv-pii-tl2os,sdv-pii-3yrrx,,sdv-pii-yta1l,1,06/28/2009,01-06-2013,01-07-2009,10/18/2009,-0.133014039,1.829473621,4.235509302,-1.764412125,6,1,11000,0,CA,0,0,0,0,0,software,0,0,0,0,0,0,0,0,0,0,sdv-pii-snj85,1,0,0,0,1,0,1.418630596,1,acquired
191,3191,CA,37.3106817,-117.5402417,sdv-pii-nq5lo,sdv-pii-6zk2t,sdv-pii-a0ovn,sdv-pii-nxkm9,sdv-pii-s0sto,0,09-03-2009,,12/16/2007,02/21/2014,5.581780712,0.279857404,2.899098713,14.79918522,10,1,11000,0,CA,0,0,0,0,0,public_relations,0,0,0,0,0,0,0,0,0,1,sdv-pii-omej3,0,0,1,1,1,0,3.594152657,1,acquired
192,3192,NY,43.90762302,-68.23163284,sdv-pii-n4nfs,sdv-pii-yexng,sdv-pii-m8vjz,sdv-pii-lhasz,sdv-pii-y3p6n,1,10-11-2007,,07/17/2006,06-04-2008,6.303920248,4.025786532,3.873636673,3.279354483,11,1,11000,3,CA,0,0,0,0,0,other,0,0,0,0,0,0,0,0,0,0,sdv-pii-o2ud6,0,0,0,0,0,0,1.939299745,1,acquired
193,3193,CA,42.99829228,-82.44414118,sdv-pii-h4qfc,sdv-pii-9sbh4,sdv-pii-q7mpz,sdv-pii-ilr2o,sdv-pii-718y6,1,01/24/2012,,06/19/2009,02/16/2011,0.491222904,7.342543061,,,2,7,11000,2,CA,0,0,1,0,0,semiconductor,0,0,0,0,0,0,0,0,0,1,sdv-pii-3v1jy,0,0,1,0,0,0,1.038777969,1,acquired
194,3194,WA,37.85888354,-120.1353005,sdv-pii-3gada,sdv-pii-5uy8q,sdv-pii-ibczw,,sdv-pii-bnbdw,1,05-12-2002,08/29/2011,03-05-2006,04-01-2009,3.925975867,21.8959,,0.003386352,6,1,14932935,2,NY,1,0,0,0,0,advertising,0,0,1,0,0,0,0,0,0,0,sdv-pii-2r1bd,0,0,0,1,0,0,1.933867734,1,acquired
195,3195,TX,37.53277171,-90.71728329,sdv-pii-p97gk,sdv-pii-h18m7,sdv-pii-hq2kg,,sdv-pii-jbfgg,1,11/15/2004,,07/18/2009,10/14/2013,5.126941683,1.765587388,-0.446609069,8.1089332,6,1,11000,1,CA,1,0,0,0,0,semiconductor,0,0,0,0,0,0,0,0,0,1,sdv-pii-h0luv,0,1,1,0,0,0,6.931863638,1,acquired
196,3196,CA,37.79680937,-68.52709635,sdv-pii-v6n70,sdv-pii-v9iao,sdv-pii-qohev,,sdv-pii-ay9jc,1,08/21/2002,,09/16/2004,05-12-2006,0.566888291,5.142490448,,-3.058351991,46,4,11000,2,CO,0,0,0,0,0,cleantech,0,1,0,0,0,0,0,0,0,1,sdv-pii-8l8it,0,1,1,1,1,0,1,0,acquired
197,3197,IL,51.02712347,-63.23450859,sdv-pii-2dugd,sdv-pii-4i2xa,sdv-pii-ta1sn,sdv-pii-bnydi,sdv-pii-wc9m7,1,04/30/2009,03/17/2007,05/18/2010,05/13/2011,0.011970657,0.933908175,3.622285355,,5,2,11000,3,WA,1,0,0,0,0,security,0,0,0,0,0,0,0,0,0,0,sdv-pii-ayy8k,0,0,1,0,0,0,1,1,closed
198,3198,MN,42.70573831,-120.688055,sdv-pii-xyh23,sdv-pii-vp9n8,sdv-pii-fo701,,sdv-pii-gl3nc,1,07/17/2002,,06/26/2009,01/13/2010,-0.423436734,0.80076079,,6.354020445,3,1,11000,1,TX,0,0,0,0,0,ecommerce,0,0,0,0,0,0,0,0,0,1,sdv-pii-8tzwg,0,0,1,0,1,0,1,1,acquired
199,3199,TX,43.48899902,-116.1849045,sdv-pii-74q2a,sdv-pii-s34hl,sdv-pii-r345q,,sdv-pii-jfirg,1,03-10-2006,11-06-2011,08-03-2006,08/14/2006,1.348921381,6.220552021,13.99566179,-1.711211545,13,2,11000,4,CO,0,0,0,0,0,semiconductor,0,0,0,0,0,0,0,0,0,0,sdv-pii-yw9lx,0,0,0,0,0,1,1.821939559,1,acquired
200,3200,CA,40.81372033,-92.45762999,sdv-pii-385vr,sdv-pii-4vr1d,sdv-pii-q07x9,,sdv-pii-2v5t1,0,06/22/2002,09-10-2011,05/28/2009,03-04-2008,1.389760178,0.23993519,,4.05801799,4,3,11000,2,NY,1,0,0,0,0,cleantech,1,0,0,0,0,0,0,0,0,1,sdv-pii-m6pmp,0,1,1,0,0,0,3.022269227,0,closed
201,3201,GA,37.39315665,-116.5503159,sdv-pii-ximce,sdv-pii-wztd1,sdv-pii-y4yz4,sdv-pii-y69wb,sdv-pii-b1ek5,1,10/15/1999,,03-01-2007,12-01-2007,5.407248675,1.867212209,,0.443543711,22,2,11000,4,NC,0,0,0,0,0,cleantech,0,0,0,0,0,0,0,0,0,1,sdv-pii-7slfw,0,0,0,0,0,0,2.395853598,0,acquired
202,3202,CO,40.16709245,-121.2313263,sdv-pii-a5iqp,sdv-pii-n1p3g,sdv-pii-tslg2,sdv-pii-2400a,sdv-pii-3iwg6,1,09/17/2002,,11/30/2007,04-03-2012,2.777003624,2.905135427,4.065662103,5.571634307,4,1,14675693,3,CA,0,0,0,0,1,other,0,0,0,0,1,0,0,0,0,0,sdv-pii-tfuy6,1,0,1,0,0,0,2.480424736,1,acquired
203,3203,TX,38.00490814,-66.63072091,sdv-pii-98bb3,sdv-pii-ul083,sdv-pii-hf6k7,,sdv-pii-jjouu,1,04-08-2005,,01/30/2005,05/17/2007,3.633700622,3.283726174,3.087474734,1.327499647,14,4,11000,2,CA,1,0,0,0,0,software,0,0,0,1,0,0,0,0,0,1,sdv-pii-xmj3x,0,0,1,1,0,0,3.528185895,0,acquired
204,3204,TX,37.13844814,-117.488918,sdv-pii-7fqy6,sdv-pii-wiz6z,sdv-pii-0pz14,,sdv-pii-kjmmt,1,02-07-2006,,10-11-2010,07-03-2012,0.766717318,11.59900151,3.920587552,,7,2,11000,0,CA,0,0,1,0,0,software,0,0,0,1,0,0,0,0,0,0,sdv-pii-g7dbw,1,0,1,1,1,0,2.482086357,1,acquired
205,3205,CA,46.58136711,-72.40526894,sdv-pii-zohhe,sdv-pii-w2nk7,sdv-pii-0ox56,sdv-pii-ybsa6,sdv-pii-1bsz8,0,03/21/2006,,04-05-2010,08/30/2007,-0.014246442,3.35677185,3.52630198,,5,6,11000,3,CA,0,0,0,0,1,games_video,0,0,0,0,0,0,0,0,0,1,sdv-pii-846od,0,0,0,0,0,0,2.613275503,1,closed
206,3206,CA,39.17454263,-68.57989492,sdv-pii-0zgyl,sdv-pii-62uhr,sdv-pii-95d9v,,sdv-pii-4qotl,0,08/25/2004,09/16/2011,07/30/2012,06/18/2011,0.852266377,1.47520827,11.5158977,4.585243453,10,4,28722475,0,CA,1,0,0,1,0,hardware,0,1,0,1,0,0,0,0,0,1,sdv-pii-ehsim,0,0,0,0,1,0,1,0,acquired
207,3207,NY,40.83624005,-115.6919901,sdv-pii-zjftk,sdv-pii-unbbg,sdv-pii-chvox,sdv-pii-3keew,sdv-pii-3t9qj,1,04-02-2001,08/21/2011,10-08-1997,09/25/2008,0.750899705,5.660343362,,-1.040760223,2,2,11000,0,WA,0,1,0,0,0,social,0,0,0,1,1,0,0,0,0,1,sdv-pii-rwvk5,0,0,1,0,0,1,1,1,closed
208,3208,CA,37.19178834,-84.07589365,sdv-pii-n7lfk,sdv-pii-ws8dc,sdv-pii-hn0vk,,sdv-pii-cht4s,1,12-07-2005,10/23/2011,12/31/2007,10/21/2009,5.881723449,1.354438858,3.623375728,3.343229777,6,1,11000,0,NY,1,0,0,0,0,games_video,0,0,0,0,0,0,1,0,0,0,sdv-pii-rgwjb,0,0,0,1,0,0,2.588388562,1,acquired
209,3209,CA,39.37019294,-120.5427656,sdv-pii-yu3b4,sdv-pii-dhtc1,sdv-pii-7wido,sdv-pii-l1xw9,sdv-pii-l2oy8,1,05/22/2004,,02-01-2013,01-10-2012,0.790201953,2.936777936,3.804857615,1.089846927,0,1,11000,3,PA,0,0,0,0,0,public_relations,0,0,1,0,0,0,0,0,0,0,sdv-pii-ednp6,0,0,0,0,1,0,1.429656463,1,closed
210,3210,CA,46.09529483,-116.458138,sdv-pii-j6iif,sdv-pii-k1qhj,sdv-pii-0pf7l,,sdv-pii-tyi9g,1,11/15/2007,10/22/2011,06/22/2005,12/23/2011,0.317364718,1.660039401,9.362875918,-0.114132054,13,3,11000,2,MN,0,0,0,0,0,advertising,0,0,1,0,0,0,0,0,0,0,sdv-pii-w5rmy,0,1,0,0,0,0,1.060686796,1,acquired
211,3211,CA,40.63068191,-71.77090259,sdv-pii-y2b2e,sdv-pii-5zua9,sdv-pii-faea3,,sdv-pii-pxklc,0,06/16/2008,,08/14/2010,11/27/2009,0.580300415,2.723565593,8.326963576,6.126337415,0,1,11000,2,NY,1,0,1,0,1,software,0,0,0,0,0,0,1,0,0,1,sdv-pii-cp0fd,1,0,0,1,1,0,2.634801612,1,acquired
212,3212,CA,38.04271705,-116.5721443,sdv-pii-fkx14,sdv-pii-witl8,sdv-pii-31t3g,,sdv-pii-cb3ry,1,11/17/1981,,01/28/2006,09/20/2011,0.948299634,2.870562969,11.835691,3.07067262,17,2,11000,3,NY,0,0,0,0,0,mobile,0,0,0,0,0,0,0,0,0,0,sdv-pii-eiesv,0,0,0,1,1,0,3.006780819,1,acquired
213,3213,NY,26.3845147,-74.31435065,sdv-pii-g9qdv,sdv-pii-aemlk,sdv-pii-4qqqj,sdv-pii-j3ny4,sdv-pii-is0wo,0,06/22/2014,09-12-2011,09/15/2008,08-05-2008,3.087945353,7.138487335,8.828958376,3.609457438,13,4,11000,2,PA,1,0,1,0,0,web,1,0,0,0,0,0,0,0,0,0,sdv-pii-xzv3b,0,1,1,1,0,0,1,0,closed
214,3214,CA,35.9317942,-117.9136827,sdv-pii-eh4ng,sdv-pii-82kjd,sdv-pii-533zo,,sdv-pii-0o9rq,1,05/19/1998,,02-08-2007,05-03-2009,4.600983336,5.777352309,3.016652686,,5,3,11000,0,CA,0,0,0,0,0,other,0,0,0,0,0,0,0,0,0,1,sdv-pii-1govk,0,0,1,0,0,0,1.377162746,1,acquired
215,3215,NY,37.96014048,-118.9594251,sdv-pii-0vkli,sdv-pii-pjrfu,sdv-pii-lko48,sdv-pii-kwmit,sdv-pii-uuf3j,1,12-12-2003,,07/18/2011,10/21/2007,0.373181075,1.86892976,3.46275665,4.214138167,12,5,11000,1,MA,0,0,0,0,1,software,0,0,0,0,0,0,0,0,0,1,sdv-pii-dj0it,0,1,0,1,1,0,1.152951491,1,acquired
216,3216,CA,39.84801647,-117.6430205,sdv-pii-rk0ji,sdv-pii-j1efr,sdv-pii-ucnt7,,sdv-pii-q8oul,0,08/13/2004,06/29/2009,01/14/2011,06-09-2012,0.250009799,4.326593043,8.598126295,4.530402033,7,5,11000,2,TX,0,0,0,0,0,public_relations,0,0,0,0,0,0,0,0,0,1,sdv-pii-rw1oi,0,1,1,0,0,0,3.369029386,1,acquired
217,3217,WA,34.22363338,-120.0008642,sdv-pii-69zqb,sdv-pii-kfaga,sdv-pii-3373k,,sdv-pii-j5p3f,1,07/16/2012,,02/20/2012,09-04-2010,2.487671885,3.175744707,2.899092263,,9,1,14590059,3,CA,0,0,0,0,1,ecommerce,0,0,0,0,0,0,0,0,0,1,sdv-pii-831l8,1,1,1,0,0,0,4.08971596,1,closed
218,3218,MN,43.96928812,-76.37534443,sdv-pii-ddlvj,sdv-pii-zystc,sdv-pii-h2sem,sdv-pii-mlu1l,sdv-pii-9ma4n,1,12/26/2005,,11/15/2006,03/27/2011,0.221366984,0.158586069,1.587222351,3.357220098,11,4,12243042,3,CO,1,1,1,0,0,social,0,1,0,0,0,0,0,0,0,0,sdv-pii-7dfi9,0,1,0,1,0,0,1.747131855,1,acquired
219,3219,CA,39.56855838,-73.21586118,sdv-pii-jg5gs,sdv-pii-ijoz9,sdv-pii-nso0v,,sdv-pii-sf5wa,1,04/15/2011,06/21/2011,05-05-2010,05/19/2009,1.10415077,5.16627711,3.999600668,-0.147440977,5,3,11000,3,NY,1,0,0,0,0,other,0,0,0,0,0,0,0,0,0,0,sdv-pii-so3br,0,0,0,1,0,0,3.719423335,1,closed
220,3220,CA,37.47175065,-63.61131785,sdv-pii-r8kne,sdv-pii-rbzb2,sdv-pii-j08z4,,sdv-pii-hce12,0,03-09-2012,04/17/2013,03/31/2007,08-02-2013,0.422497953,2.98437679,3.466431555,-1.847803029,19,2,11000,0,CA,0,0,0,0,0,mobile,0,0,0,0,0,0,0,0,0,1,sdv-pii-0me8e,1,0,0,0,0,0,1.205656939,1,acquired
221,3221,NY,37.81421082,-67.83044494,sdv-pii-wwxly,sdv-pii-pseh8,sdv-pii-d1962,sdv-pii-bn0sk,sdv-pii-vwccn,0,10/28/2001,,10-04-2005,09/24/2013,1.693130325,2.460970837,,-0.545241834,8,1,11000,1,ME,0,0,1,0,0,software,1,0,0,0,0,0,0,1,0,0,sdv-pii-96ulr,0,1,0,1,0,0,1,0,closed
222,3222,CA,35.7082348,-66.74368828,sdv-pii-av64c,sdv-pii-zidu2,sdv-pii-mff54,,sdv-pii-6nh3z,0,12-06-2009,,12/24/2011,01-09-2006,0.71583713,3.004905221,,,12,3,11000,2,CA,0,0,0,0,0,web,0,0,0,0,0,0,0,0,0,0,sdv-pii-wvkut,0,0,0,1,0,0,1.214715849,1,acquired
223,3223,CA,42.87250177,-121.9588808,sdv-pii-p6x4s,sdv-pii-nfwl5,sdv-pii-9hqzi,sdv-pii-3svq5,sdv-pii-cbfue,1,02/17/1995,,06-11-2009,02-12-2010,-0.072107864,0.187117281,4.255096536,1.762563655,9,4,11000,3,CA,0,0,0,0,0,analytics,0,0,0,0,0,0,0,0,0,0,sdv-pii-mbich,0,1,1,1,0,0,1,1,acquired
224,3224,CA,37.79135614,-91.740784,sdv-pii-z7hf4,sdv-pii-yypva,sdv-pii-3nr7r,,sdv-pii-gbyg5,1,08/25/2010,,03/20/2009,06/17/2003,1.41390708,2.744920299,5.136143106,3.442026872,0,3,11000,4,CA,1,0,0,0,0,software,0,0,0,0,0,0,0,0,0,0,sdv-pii-exkav,1,0,0,1,0,1,2.629169853,1,acquired
225,3225,DC,37.39323482,-63.58040632,sdv-pii-dy6zv,sdv-pii-5ksig,sdv-pii-anqii,,sdv-pii-ayc11,1,03-08-2005,,04-09-2002,12/19/2009,1.78320337,7.809319028,13.38778324,5.228705216,2,4,11000,3,CA,0,0,0,0,1,travel,0,0,0,0,0,0,0,0,0,1,sdv-pii-i3l0p,1,0,0,0,1,0,4.563388451,1,acquired
226,3226,CA,38.3982045,-66.66433672,sdv-pii-yghw3,sdv-pii-0yt88,sdv-pii-b8bup,,sdv-pii-85nqt,0,12/19/1999,,06-07-2007,09/28/2010,1.537262543,15.60467277,4.037602538,-0.684075902,9,2,118082681,0,CA,0,0,0,0,0,web,0,0,0,0,1,0,0,0,0,0,sdv-pii-324i2,0,0,1,0,1,0,2.310290003,1,acquired
227,3227,CA,37.29521491,-66.94994723,sdv-pii-l76ci,sdv-pii-ys7n9,sdv-pii-65ox0,sdv-pii-nvci0,sdv-pii-09c2z,1,10-04-2003,,07/26/2007,02/19/2010,5.505404136,11.08552665,3.083650959,1.785778836,17,3,11000,2,VA,1,0,0,0,0,advertising,0,0,1,0,0,0,1,0,0,1,sdv-pii-uunr3,0,0,0,1,0,0,1.38711807,1,acquired
228,3228,CA,37.85795612,-61.87163832,sdv-pii-sspi9,sdv-pii-qe3mc,sdv-pii-5ryt6,,sdv-pii-rvkvi,1,08/23/2005,,02/14/2012,01/26/2006,0.838463578,2.644492711,3.918248062,5.426318709,13,4,3717008,2,DC,0,0,0,0,0,hardware,0,1,0,0,0,0,0,0,0,1,sdv-pii-pv1xm,0,0,0,0,0,1,1.518064351,1,acquired
229,3229,CA,37.49146873,-75.03744452,sdv-pii-3y67o,sdv-pii-bxyb1,sdv-pii-zidob,,sdv-pii-6ck0f,1,11/24/2012,,12-03-2006,03-01-2011,-0.646677451,0.656356246,,8.840928419,0,1,11000,0,CA,1,0,0,0,0,advertising,0,0,0,0,0,0,0,0,0,1,sdv-pii-wqjpz,0,0,1,0,0,0,1.301523897,1,acquired
230,3230,IL,37.25863522,-80.06968927,sdv-pii-gk054,sdv-pii-zvktb,sdv-pii-khbe2,sdv-pii-7w4gw,sdv-pii-uvkt8,1,12/16/2006,10/27/2011,05/30/2008,12/21/2010,0.654861168,6.700137315,1.520289207,5.088042374,12,2,11000,3,CA,1,0,1,0,1,analytics,0,0,0,1,0,0,0,0,0,0,sdv-pii-bg6w3,0,0,0,0,0,0,1.133610464,1,closed
231,3231,CA,37.51948838,-79.30436782,sdv-pii-cfciy,sdv-pii-hv56j,sdv-pii-ggw8v,,sdv-pii-ur4vs,1,02-04-2004,09/23/2011,05/16/2006,05-09-2010,2.091850107,4.637631729,,1.947301756,5,1,11000,3,IL,1,0,0,0,0,enterprise,0,0,0,0,0,1,0,0,0,0,sdv-pii-uo7vl,0,1,0,0,0,0,2.080502729,1,acquired
232,3232,FL,37.48297373,-81.89210725,sdv-pii-lytn7,sdv-pii-jub9j,sdv-pii-qza84,,sdv-pii-kgbix,1,01/20/2013,09-05-2011,01/29/2010,10-02-2014,0.516703262,7.041674886,3.401868295,4.391458393,2,1,11000,1,WA,0,0,0,0,0,mobile,0,0,0,0,0,0,0,0,0,1,sdv-pii-dy1oh,0,0,1,1,0,0,2.966842007,1,closed
233,3233,CA,42.08018845,-117.3232686,sdv-pii-jwnl6,sdv-pii-pb5f4,sdv-pii-zancr,sdv-pii-yrvyf,sdv-pii-n1hng,1,12-08-2009,01-11-2013,03-10-2014,11-10-2010,1.185885868,8.797634492,3.850820268,-1.740697798,4,1,11000,1,CA,0,1,0,0,0,messaging,0,1,0,0,0,0,0,0,0,1,sdv-pii-3avhk,0,0,1,0,1,0,2.134390408,1,closed
234,3234,CA,42.59556073,-63.62968818,sdv-pii-d8jlc,sdv-pii-yd0an,sdv-pii-51rdl,,sdv-pii-tsjb8,1,12-07-2005,,04/16/2012,08/21/2011,1.329767302,-1.249227816,4.813856427,,6,4,11000,1,CA,1,0,0,0,0,mobile,0,1,0,0,0,0,0,0,0,0,sdv-pii-0gphq,0,0,1,0,0,0,1.377578087,1,acquired
235,3235,GA,37.24126947,-65.05916266,sdv-pii-9u2r8,sdv-pii-xy4wt,sdv-pii-j2mro,,sdv-pii-8dryt,1,11-05-2014,,10/31/2008,08/19/2012,0.206700731,3.012646498,2.87530498,12.29396207,2,1,11000,4,OH,1,0,0,0,0,advertising,0,0,0,0,0,0,0,0,0,1,sdv-pii-2frn3,0,0,1,0,1,0,1.442098892,1,acquired
236,3236,NY,40.14162786,-115.5995009,sdv-pii-qtbt9,sdv-pii-0oimf,sdv-pii-35jur,sdv-pii-6z409,sdv-pii-ohtjp,1,08/23/2005,,06-02-2008,10/20/2009,-0.404016926,11.49303326,3.772397983,1.198407359,6,1,9681932,2,VA,0,0,1,0,0,games_video,0,0,0,0,0,0,0,0,0,1,sdv-pii-oybpr,0,1,1,1,0,0,5.323128277,1,acquired
237,3237,CA,42.63679083,-119.4838292,sdv-pii-yi52u,sdv-pii-2whl0,sdv-pii-0yrs1,,sdv-pii-j358b,0,12/17/2003,05/24/2008,05/23/2009,12/13/2008,2.208681176,13.89950756,14.85823814,,3,2,11000,4,ME,1,0,0,0,0,biotech,0,0,0,0,1,0,0,0,0,1,sdv-pii-mur0k,0,0,0,0,1,0,3.505301824,1,closed
238,3238,NY,37.94754628,-84.59022654,sdv-pii-qvvmy,sdv-pii-zuvhh,sdv-pii-pdain,sdv-pii-ifn54,sdv-pii-5rnb8,1,02/14/2003,,05/16/2006,07-10-2012,2.424211589,2.983131047,0.396951532,,0,2,11000,4,CA,0,0,0,0,1,web,0,0,0,0,0,0,0,0,0,0,sdv-pii-5lm38,0,0,1,0,0,0,1.855732393,1,acquired
239,3239,TX,42.71722539,-116.5923651,sdv-pii-fkkln,sdv-pii-nci7e,sdv-pii-bl54r,,sdv-pii-eg3r3,1,01/16/2013,,12-07-2007,04/18/2008,0.088739351,1.817688271,3.883538291,5.93828526,0,1,11000,2,CA,1,0,0,0,0,sports,0,0,0,0,1,0,0,0,0,1,sdv-pii-avjuv,0,0,0,0,0,0,2.247280807,1,acquired
240,3240,CA,41.67751293,-119.2664328,sdv-pii-m9230,sdv-pii-csgei,sdv-pii-nur4s,sdv-pii-28ika,sdv-pii-nzvol,1,03/21/2004,,11/24/2004,08-04-2014,1.358389846,6.362451114,4.138075658,,4,4,11000,3,VA,0,0,0,0,0,web,0,0,0,1,0,0,0,0,0,1,sdv-pii-rhu1q,0,0,0,1,0,0,1.599318574,1,closed
241,3241,CA,37.46774191,-117.4077871,sdv-pii-rvidh,sdv-pii-tgp3d,sdv-pii-dfbkw,,sdv-pii-bez77,1,07/25/2009,09-06-2011,12-08-2000,10/19/2009,0.358898695,6.492273747,12.29129361,8.802100511,3,3,11000,2,CA,1,0,0,0,0,biotech,0,0,0,0,0,0,0,0,0,1,sdv-pii-540fw,0,0,0,1,0,0,1.283791476,1,closed
242,3242,CA,37.51280278,-120.760451,sdv-pii-dbry4,sdv-pii-k4whq,sdv-pii-daf6v,sdv-pii-pvfgy,sdv-pii-daqp1,1,05/19/2013,08/18/2011,04/22/2007,10/19/2004,3.948633836,2.291563854,3.118865335,3.805699052,9,3,11000,3,MA,0,0,0,0,0,software,0,0,0,0,0,0,0,0,0,1,sdv-pii-vg01q,0,1,1,0,1,0,1,1,closed
243,3243,CA,38.16408014,-117.3690196,sdv-pii-4uym6,sdv-pii-7ju6u,sdv-pii-t3vu8,,sdv-pii-tq1md,1,08-07-2004,,02/15/2010,10-05-2009,2.534017459,1.411570864,3.952922716,4.293796665,5,2,12962606,3,CA,0,0,0,0,0,software,0,0,0,0,0,0,0,0,0,0,sdv-pii-utbaw,0,1,0,0,0,0,1.253293704,0,acquired
244,3244,MA,44.25979184,-77.71206574,sdv-pii-ttwre,sdv-pii-ngw4e,sdv-pii-egcx7,,sdv-pii-k1frb,1,12/23/2003,03/16/2012,05/26/2013,05-11-2014,21.8959,1.271533616,16.50796866,0.410848203,0,1,11000,0,CA,1,0,0,0,0,web,0,0,0,0,0,0,0,0,0,0,sdv-pii-2o2qp,0,1,0,0,1,0,1.995915669,1,acquired
245,3245,PA,38.12808503,-86.12999986,sdv-pii-307sr,sdv-pii-3uutf,sdv-pii-5g34p,sdv-pii-oiktx,sdv-pii-jkij5,0,12/18/2001,05/17/2012,07/29/2006,04/18/2011,7.205038287,11.51030486,14.44390378,-0.046837904,9,2,11000,3,NY,0,0,0,0,0,enterprise,0,0,0,0,0,0,0,0,0,1,sdv-pii-q7438,0,0,0,1,0,0,1.988103366,1,closed
246,3246,CO,38.13342676,-72.60208718,sdv-pii-tak3u,sdv-pii-6umm0,sdv-pii-til30,,sdv-pii-iy7sl,1,10-05-2011,,10/16/2006,06-03-2011,2.531800586,5.34223588,4.214491514,,7,6,11000,1,MA,0,0,0,0,0,news,0,0,1,0,0,0,1,0,0,0,sdv-pii-b6hmj,0,0,0,1,0,0,1.246475786,1,acquired
247,3247,CA,37.69915889,-73.06990079,sdv-pii-a0i64,sdv-pii-04rwr,sdv-pii-s0a1b,sdv-pii-coey6,sdv-pii-sfk2h,1,02/25/2003,09-07-2011,05-07-2006,12-06-2007,11.15737811,2.29147849,,-5.2867929,3,3,11000,3,CA,0,0,0,1,0,enterprise,0,0,0,0,0,0,0,0,0,0,sdv-pii-s8g5w,0,1,0,1,1,0,1.315608542,1,acquired
248,3248,TX,34.98608253,-118.0548112,sdv-pii-sben3,sdv-pii-t7onz,sdv-pii-qtkmo,,sdv-pii-vp542,1,10/25/2005,10-05-2011,07/27/2012,03/14/2011,11.51409409,0.879740917,8.873900419,,9,1,2079286,2,CA,0,0,0,0,1,web,0,1,0,0,0,0,0,0,0,0,sdv-pii-18xkc,0,0,1,0,0,0,1.570029753,1,acquired
249,3249,NY,28.08856355,-61.9691807,sdv-pii-pibxq,sdv-pii-ofq64,sdv-pii-cjr6h,,sdv-pii-46wc4,1,07/22/2008,,06/29/2011,01-12-2014,1.590035736,3.736842004,,,0,3,11000,1,CA,1,0,0,1,0,cleantech,0,0,0,0,0,0,1,0,0,1,sdv-pii-ns18a,1,0,0,0,0,0,3.684906532,1,acquired
250,3250,CT,37.72791734,-78.25868956,sdv-pii-o9pij,sdv-pii-pk27s,sdv-pii-av49u,,sdv-pii-se24l,0,09-06-2004,03/14/2013,11/23/2011,05/24/2011,0.450800808,7.508271484,1.434241327,2.247099824,4,1,11000,0,CA,0,1,0,0,0,mobile,0,0,0,0,0,0,0,0,0,1,sdv-pii-fb49z,0,0,0,0,0,0,3.496625788,1,closed
251,3251,CA,48.69323789,-73.57979526,sdv-pii-fyvvh,sdv-pii-gj2cb,sdv-pii-ewgor,sdv-pii-6ttsq,sdv-pii-hriak,1,08-07-2003,,05-02-2013,04-08-2012,1.236525039,0.902605655,8.799059244,4.547834318,0,4,11000,1,MD,0,1,0,0,0,hardware,0,0,0,0,0,0,0,0,0,0,sdv-pii-esc12,0,0,0,0,0,0,1,1,acquired
252,3252,PA,38.29719035,-120.9801628,sdv-pii-7peyt,sdv-pii-bmq3s,sdv-pii-jqpjq,sdv-pii-jrwdm,sdv-pii-j4dbg,0,05/24/2007,09-12-2011,04/17/2013,11/29/2007,0.693030016,12.76821486,3.195920198,,8,5,11000,0,NJ,0,0,0,0,0,software,0,0,0,1,0,0,0,0,0,0,sdv-pii-o27zh,0,0,1,0,0,0,3.494690178,1,acquired
253,3253,CA,38.38420244,-117.7716684,sdv-pii-a9zdt,sdv-pii-y85bm,sdv-pii-503ku,,sdv-pii-d6g3h,0,07/27/2011,09/30/2011,10-01-1997,03/19/2012,2.809881704,2.418010642,3.861029285,8.259593545,3,2,11000,2,CA,1,0,0,0,0,semiconductor,1,0,0,0,0,0,0,0,0,1,sdv-pii-bu9gs,1,1,0,0,0,0,3.435917128,1,closed
254,3254,NY,37.86757745,-75.53826933,sdv-pii-htezt,sdv-pii-vfmdg,sdv-pii-p03ff,sdv-pii-g3g27,sdv-pii-0m3ry,1,05/20/2004,,10/27/2004,10/23/2006,1.749114037,2.440185599,,,9,1,11000,1,TX,1,0,0,1,0,semiconductor,0,0,0,0,0,0,0,1,0,1,sdv-pii-qc22o,0,1,0,1,1,1,5.032081497,1,closed
255,3255,CA,36.96253609,-65.27130016,sdv-pii-x2f3d,sdv-pii-vescz,sdv-pii-ytsf6,,sdv-pii-dq6a4,0,12/17/2014,08/26/2011,09/25/2000,01/30/2010,4.610730376,2.008568491,3.791896344,-0.364286221,2,2,11000,4,TX,0,0,0,0,0,analytics,0,0,0,1,0,0,0,0,0,1,sdv-pii-5vg7n,0,1,1,0,1,0,3.486084319,0,acquired
256,3256,CA,38.15140226,-115.1434607,sdv-pii-9gt0k,sdv-pii-3xjfh,sdv-pii-lexs1,sdv-pii-tlkfr,sdv-pii-o4sg8,1,08/21/2013,10-08-2011,10/17/2003,02/27/2008,2.121012741,6.824608276,13.51236749,9.657066428,0,2,11000,1,IN,1,0,0,0,0,transportation,1,0,0,0,1,0,0,0,0,1,sdv-pii-s1ll0,0,1,1,0,0,1,1,1,acquired
257,3257,CA,53.42967138,-68.21750047,sdv-pii-7orzv,sdv-pii-xx0ey,sdv-pii-uaweo,,sdv-pii-p9zle,1,10-12-2002,09-06-2011,04-02-2000,09/25/2012,0.159015469,0.647402445,13.22229286,,29,1,11000,1,CA,0,0,0,0,0,web,1,0,0,0,0,0,0,0,0,0,sdv-pii-nnvay,1,1,0,1,1,0,1,1,acquired
258,3258,MI,43.89330596,-69.85293616,sdv-pii-gov8g,sdv-pii-r5irc,sdv-pii-2mkej,,sdv-pii-c1e7y,0,06/17/2008,09-02-2011,09-11-2004,11-09-2011,-0.18171819,0.039311151,3.419841534,-7.0055,5,3,11000,3,MA,1,0,0,0,0,hardware,0,0,0,0,0,0,0,0,0,0,sdv-pii-0vmer,0,1,1,1,0,0,3.291399232,1,closed
259,3259,TX,37.35074434,-115.8493493,sdv-pii-7lgln,sdv-pii-zjsvg,sdv-pii-38qtp,,sdv-pii-dhbrv,0,07/31/2001,,07/19/2009,05-11-2013,0.653981946,3.129955733,4.037762411,10.75095565,11,3,11000,1,CA,1,1,0,0,0,public_relations,0,0,0,0,0,0,0,0,0,1,sdv-pii-495s0,0,0,1,1,1,0,1,1,acquired
260,3260,CA,31.41483985,-116.7590882,sdv-pii-tepkx,sdv-pii-yho47,sdv-pii-jekug,,sdv-pii-bn4ac,0,07/17/2006,,11-12-2013,07-10-2010,0.880568241,6.492299758,,9.135889323,1,1,11000,2,MA,1,0,0,0,1,semiconductor,0,0,0,0,0,0,0,0,0,1,sdv-pii-alogi,0,0,0,0,0,0,1.883814765,1,closed
261,3261,CA,38.00160046,-67.92088754,sdv-pii-8uq69,sdv-pii-hjdu6,sdv-pii-iwr1m,sdv-pii-f1671,sdv-pii-8he50,1,10/16/2002,09/28/2011,03/14/2007,03/25/2010,8.890018427,5.975485988,3.087721831,1.017259193,0,2,11000,3,CA,0,0,0,0,0,mobile,0,0,0,0,0,0,0,0,0,0,sdv-pii-g3bjg,0,0,0,1,0,0,2.044437265,0,closed
262,3262,VA,37.33386335,-73.32882261,sdv-pii-u1lrd,sdv-pii-qc66t,sdv-pii-cv1jy,sdv-pii-4f4ew,sdv-pii-dceqw,0,07/30/2006,,02/28/2008,04/21/2004,0.780414974,8.059365377,3.785525193,3.478488612,0,4,11000,3,NY,0,0,0,0,0,advertising,0,0,0,0,0,0,0,0,0,0,sdv-pii-e0px7,0,1,1,1,1,0,2.280704949,1,acquired
263,3263,CA,37.71684814,-66.85079306,sdv-pii-nclh6,sdv-pii-3bzrm,sdv-pii-gy6h6,,sdv-pii-uqfg2,1,07/27/2005,,02/26/2003,01/20/2007,-0.549777714,3.708833869,1.503588911,,13,7,11000,3,CA,0,0,0,0,0,software,0,0,0,1,0,0,0,0,0,0,sdv-pii-apzt7,0,0,1,1,0,0,4.012517374,0,acquired
264,3264,VA,35.88506636,-118.6239623,sdv-pii-qhp1w,sdv-pii-8nzyz,sdv-pii-d52n2,,sdv-pii-pqyhf,0,09-12-2000,,01/28/2013,02/27/2014,7.527007,-0.537505216,13.1023065,-0.329471142,5,1,19541265,3,MI,0,0,0,0,0,games_video,0,1,1,0,1,0,0,1,0,1,sdv-pii-6d88g,1,1,1,1,0,0,2.988652421,0,acquired
265,3265,CA,37.35279774,-117.2972745,sdv-pii-8j6oz,sdv-pii-zwb6k,sdv-pii-ltb1r,sdv-pii-r4pth,sdv-pii-wnpir,0,06/20/2004,10/18/2011,12-12-2007,04-09-2012,4.039826478,6.519506833,14.88177999,5.843946074,12,1,11000,3,CA,0,0,0,0,1,web,0,0,0,0,0,0,0,0,1,1,sdv-pii-hizlz,0,0,1,1,0,0,1,1,acquired
266,3266,CA,40.88870431,-87.09329243,sdv-pii-s23hu,sdv-pii-7v1en,sdv-pii-0nx8l,,sdv-pii-btpti,1,07/20/2007,11-01-2011,09/25/2008,02/23/2008,-0.802661539,1.15291876,,2.237660624,4,2,11000,1,ME,0,0,0,1,0,advertising,0,0,0,0,1,0,0,0,0,0,sdv-pii-00qvu,0,0,0,0,0,0,1.080885589,1,acquired
267,3267,NJ,42.58650634,-116.622311,sdv-pii-fch10,sdv-pii-fc6ig,sdv-pii-tln2n,,sdv-pii-wzkai,1,07-10-2000,,02-02-2007,08/26/2011,5.435929712,2.756915368,4.122877637,3.9426476,28,3,11000,1,CA,1,0,0,0,1,mobile,0,0,0,0,0,0,0,0,0,1,sdv-pii-nf8bt,1,1,0,0,0,1,2.038775984,1,acquired
268,3268,TX,44.38861837,-72.16667515,sdv-pii-sm7vg,sdv-pii-2gdtu,sdv-pii-12j2s,,sdv-pii-9mh7v,0,07/27/2005,11-11-2011,08-12-2010,04-03-2009,1.654887094,6.546939131,4.24832978,-1.609337448,15,4,14199248,0,NY,1,0,0,0,0,biotech,0,0,0,0,0,0,1,0,0,0,sdv-pii-prteg,0,0,0,0,1,0,1.061299451,1,acquired
269,3269,CA,40.2684183,-121.1842959,sdv-pii-cm3mx,sdv-pii-l9zd1,sdv-pii-b5890,,sdv-pii-aelao,1,07/24/2004,,01/22/2006,01/16/2011,0.477491779,2.642758477,2.439479687,2.303155633,8,3,11000,4,NY,0,0,0,0,0,biotech,0,0,0,0,0,0,0,0,0,1,sdv-pii-2yhwz,0,0,0,1,0,0,4.073923897,0,acquired
270,3270,CA,37.49740969,-70.9750662,sdv-pii-l29lq,sdv-pii-s5vrd,sdv-pii-hqzhq,sdv-pii-dn8ba,sdv-pii-59qx8,1,07/29/2005,,03-07-2004,01-08-2010,0.582893291,-0.037377418,12.24005545,4.233553657,10,3,11000,2,CA,0,0,0,0,0,software,0,0,0,0,0,0,0,0,0,1,sdv-pii-2dqrg,1,0,0,0,0,0,1.323412699,1,closed
271,3271,CA,39.02831056,-117.8266723,sdv-pii-16l3s,sdv-pii-4kxm8,sdv-pii-qfz8z,,sdv-pii-9wjj8,1,04-02-2013,,04-07-1999,12-08-2013,5.365333123,3.289706384,4.292093651,-1.839083377,3,4,11000,0,CA,1,0,0,0,0,hardware,0,0,1,0,0,0,0,0,0,1,sdv-pii-9chuz,0,1,1,0,0,0,1.509208851,1,closed
272,3272,GA,49.15915837,-69.48918907,sdv-pii-gg93z,sdv-pii-h6tno,sdv-pii-b971d,,sdv-pii-l63sb,1,07/17/2001,,10/27/2012,11-10-2007,0.935450903,1.696880312,4.055532564,3.595094799,13,2,11000,5,MA,0,0,0,0,0,news,0,0,0,0,0,0,0,0,0,1,sdv-pii-wx5w2,0,1,0,1,1,0,1.278612981,1,closed
273,3273,MA,36.67208092,-116.220659,sdv-pii-7hewy,sdv-pii-51cbz,sdv-pii-hs7o7,sdv-pii-o8lzo,sdv-pii-54gnm,1,04/29/2007,09-06-2011,05/28/2005,04/24/2007,0.783806478,5.92841528,2.958013254,4.670182842,0,2,11000,1,MA,0,0,0,0,0,games_video,0,0,0,0,0,0,0,0,0,0,sdv-pii-fwian,1,0,1,0,0,1,1.043409535,1,acquired
274,3274,TX,37.89038073,-120.9288392,sdv-pii-xqqt2,sdv-pii-725x5,sdv-pii-f5nah,sdv-pii-y9a1l,sdv-pii-goiex,1,09/24/2004,,05-12-2013,04/16/2011,2.65606967,21.8959,4.352340174,-1.253672647,5,1,11000,2,WA,0,0,0,0,0,web,0,0,0,0,0,0,0,0,0,0,sdv-pii-a35b2,0,1,0,1,0,0,2.24899615,1,acquired
275,3275,CA,44.05190055,-64.78664136,sdv-pii-3bv38,sdv-pii-yw1fj,sdv-pii-crm6o,sdv-pii-e2113,sdv-pii-5x1cj,1,07/29/2000,09-10-2011,02-10-2004,05/19/2014,1.504211535,0.227110242,9.406677677,3.686116865,11,1,11000,2,CA,0,0,0,0,0,advertising,0,0,0,0,0,0,0,0,0,1,sdv-pii-wmkb0,0,0,0,0,1,0,1.490595998,1,acquired
276,3276,CA,50.80457955,-67.85754303,sdv-pii-ix17i,sdv-pii-y8a6v,sdv-pii-q51yo,sdv-pii-ux4q4,sdv-pii-48cuz,1,09/15/2003,10-03-2011,06-04-2009,04/21/2012,3.205790711,18.10047177,3.778327527,3.673464793,9,1,11000,1,CA,1,0,0,0,1,enterprise,0,0,0,0,1,0,1,0,0,0,sdv-pii-2hb1k,0,0,0,0,0,0,1.033218293,0,acquired
277,3277,WA,40.80044571,-73.66992824,sdv-pii-m2ele,sdv-pii-a0zlx,sdv-pii-zenyd,sdv-pii-rqceu,sdv-pii-zhd7x,1,02/26/2002,,07/18/2007,12/31/2010,-1.04835117,2.373476726,3.860434434,-1.182900853,3,1,11000,2,MA,0,0,0,0,1,finance,0,0,0,0,0,0,0,0,0,0,sdv-pii-4u9rl,0,0,1,1,1,1,1.776804635,1,closed
278,3278,CA,41.32297749,-88.09952307,sdv-pii-uqsvc,sdv-pii-vtzyl,sdv-pii-oxjjz,sdv-pii-ut3o7,sdv-pii-ldvr7,1,02-07-2005,02-05-2012,12/15/2006,08/20/2011,-0.008623264,12.61310836,8.308158117,3.444016531,5,2,11000,1,CA,0,0,0,1,1,mobile,1,0,0,0,0,0,0,0,0,0,sdv-pii-t7odz,0,0,0,0,0,0,2.552816328,1,closed
279,3279,NY,41.21790588,-68.07635531,sdv-pii-4szcl,sdv-pii-z53hp,sdv-pii-lcj1f,sdv-pii-dd710,sdv-pii-b617r,0,01/30/2003,,11-09-2007,07-09-2007,1.103889606,1.563910523,3.25458569,10.46955099,2,1,11000,0,CA,1,1,0,1,0,social,0,0,0,0,0,0,0,0,0,1,sdv-pii-02wjn,0,1,1,0,1,0,1.472022561,1,acquired
280,3280,NY,27.63735131,-85.20419127,sdv-pii-buitz,sdv-pii-laovh,sdv-pii-cql39,,sdv-pii-01rvn,0,02/24/2003,09-03-2011,05/15/2009,03-04-2012,0.246862539,2.465842819,3.759965484,4.764874631,8,7,3362734,2,CA,0,0,0,0,0,public_relations,0,0,1,1,0,0,0,0,0,0,sdv-pii-cvsjt,0,0,1,0,0,0,3.798543353,1,acquired
281,3281,CA,40.8201438,-119.7314974,sdv-pii-q3m1l,sdv-pii-dupxc,sdv-pii-h1d16,sdv-pii-utxco,sdv-pii-vzbdf,1,02/15/2005,,10-03-2012,04-03-2010,5.008992345,2.720830266,4.672945056,,10,3,11000,0,CA,1,0,0,0,0,photo_video,1,1,0,0,0,0,0,0,0,1,sdv-pii-o47tt,0,0,0,0,0,0,4.169507756,1,closed
282,3282,CA,28.4871209,-121.5199605,sdv-pii-59uk1,sdv-pii-zfena,sdv-pii-86ps5,sdv-pii-vkjyj,sdv-pii-c0xe4,1,12/21/2014,,11/16/2012,07-04-2011,3.040626265,5.403129516,3.467476751,5.661848531,0,2,11000,3,WA,0,0,0,0,1,ecommerce,0,0,0,0,0,0,0,0,0,0,sdv-pii-9zwk6,1,0,0,0,1,0,2.765230745,1,closed
283,3283,PA,42.59529662,-122.7569561,sdv-pii-7gvv2,sdv-pii-6d9iq,sdv-pii-2ta2p,,sdv-pii-4grcf,1,01-11-2004,10/25/2011,09-07-2003,02/20/2010,-1.245497593,5.608575764,1.284117134,1.487381227,6,2,18546741,3,CA,0,0,0,0,0,other,0,1,0,0,0,0,0,0,0,1,sdv-pii-r2vjp,0,0,0,1,1,0,1.762492066,1,closed
284,3284,CA,37.76556418,-65.79269168,sdv-pii-3qh3l,sdv-pii-1yrkg,sdv-pii-z5y39,,sdv-pii-0bquj,1,12/29/2003,,01/27/2008,12/21/2006,1.004266107,13.66885853,4.109212839,2.980638613,24,3,11000,3,CA,0,1,0,0,1,games_video,0,0,1,0,0,0,1,0,0,0,sdv-pii-ubaeg,0,0,1,0,0,0,1,1,acquired
285,3285,GA,41.722429,-119.7134461,sdv-pii-8n2uv,sdv-pii-5g705,sdv-pii-r0rwv,sdv-pii-jnrdz,sdv-pii-ujhk6,1,08/19/2004,10/28/2011,01/17/2010,09-11-2007,0.909806601,0.887487773,3.76917147,5.120074148,31,3,11000,2,CA,1,0,0,0,0,games_video,0,0,0,0,0,0,0,0,0,0,sdv-pii-zr2bs,0,0,1,1,0,0,1,1,closed
286,3286,CA,38.53716395,-119.964176,sdv-pii-t439s,sdv-pii-utq2y,sdv-pii-hefqm,,sdv-pii-s8wit,1,03-01-2008,,09/21/2006,10-09-2014,-0.247504287,1.619035656,3.756521905,6.606955094,7,4,11000,3,CA,0,0,0,0,0,advertising,0,0,0,0,0,0,0,0,0,0,sdv-pii-ladv2,0,1,1,1,0,1,1.418314543,1,acquired
287,3287,CA,42.39451227,-63.95211204,sdv-pii-x2scb,sdv-pii-w76yr,sdv-pii-wslj0,,sdv-pii-59ut2,1,09/30/2000,,06/29/2005,03/19/2010,0.257158016,5.360700203,,-0.335225458,10,3,11000,0,CA,1,0,0,0,0,games_video,0,0,0,0,0,0,0,0,0,0,sdv-pii-jut3p,0,0,0,1,0,0,2.150561375,1,closed
288,3288,CA,34.13203614,-74.63619772,sdv-pii-628ym,sdv-pii-1brcb,sdv-pii-7nk8e,,sdv-pii-cl1b9,1,10-08-2005,,09-05-2011,06-12-2010,2.591668942,2.728179236,3.681692565,,2,4,11000,4,CA,0,0,0,0,0,security,0,0,0,0,0,0,0,0,0,1,sdv-pii-h6r6r,1,0,1,0,1,0,1.900651752,1,closed
289,3289,CA,50.11143389,-67.56678636,sdv-pii-dy7ko,sdv-pii-uu0wz,sdv-pii-ulk2b,,sdv-pii-2p3o9,1,01/15/2007,,01-04-1999,11/14/2010,1.53134727,4.866974665,3.830419722,7.387630856,14,1,11000,1,CA,1,0,0,0,0,fashion,0,0,0,0,0,0,0,0,0,0,sdv-pii-w3f9u,0,1,0,0,0,0,1,1,acquired
290,3290,CA,43.83358193,-116.4820331,sdv-pii-5pxi7,sdv-pii-lnomb,sdv-pii-okw6b,,sdv-pii-yj7eh,1,02/15/2001,,08-05-2004,11/17/2011,0.853881208,5.216547697,3.059974158,3.747333889,8,1,11000,2,FL,1,0,0,1,0,ecommerce,0,0,1,0,0,0,1,0,0,1,sdv-pii-igtf3,0,1,1,0,1,0,1,1,acquired
291,3291,CA,46.30040263,-117.4677284,sdv-pii-ohcun,sdv-pii-s1iyk,sdv-pii-qrzas,sdv-pii-9fgeu,sdv-pii-ywn04,1,09-02-1999,11-02-2011,05-08-2008,12/14/2008,-0.626037699,14.53698049,3.79999817,7.706692611,2,2,11000,2,CA,0,0,0,0,1,ecommerce,1,0,0,0,0,0,0,0,0,1,sdv-pii-7k7q8,0,1,1,1,1,0,2.693573723,1,acquired
292,3292,WA,37.60871278,-70.12082283,sdv-pii-5u092,sdv-pii-bqqae,sdv-pii-cncak,sdv-pii-mgw80,sdv-pii-7e60x,1,08/24/2011,,09-03-2005,12-06-2011,3.32871677,6.384559769,,6.128406145,11,1,11000,4,CA,0,0,0,1,0,social,0,0,0,0,0,0,0,0,0,0,sdv-pii-3do85,0,1,0,0,0,0,3.042706263,1,acquired
293,3293,CA,41.94048868,-116.9204382,sdv-pii-h26zn,sdv-pii-lcccy,sdv-pii-djuac,sdv-pii-ro2c0,sdv-pii-mh53h,0,01/15/2000,03-07-2012,07-10-2012,08/31/2014,1.203568474,3.117612984,10.16937531,,5,1,11000,5,CA,0,0,0,0,0,enterprise,1,0,0,0,0,0,0,0,0,1,sdv-pii-rkw1y,0,0,0,0,0,0,5.609543616,1,closed
294,3294,CO,38.10287802,-122.7569561,sdv-pii-0aox5,sdv-pii-evgbw,sdv-pii-zkqlb,sdv-pii-bl2ar,sdv-pii-dpksa,1,02-07-2001,,09/17/2005,08/13/2008,-0.788784117,4.162721266,24.6849,1.111275836,8,3,11000,4,CA,0,0,0,0,1,games_video,0,1,0,0,0,0,0,0,1,1,sdv-pii-ubb8p,0,0,0,0,0,1,1.511208521,0,closed
295,3295,CA,39.02482722,-71.28821045,sdv-pii-lq2rg,sdv-pii-l5iux,sdv-pii-qucgf,,sdv-pii-p3cdz,1,09/20/2007,,02/23/2011,09/19/2009,1.219662903,5.316640609,3.961532649,4.371625296,32,1,11000,2,CA,0,0,0,0,0,cleantech,0,0,0,1,0,0,0,1,0,0,sdv-pii-dp3va,1,0,1,0,0,0,3.806612791,1,closed
296,3296,CA,37.87010903,-68.30413327,sdv-pii-y80pf,sdv-pii-5wau7,sdv-pii-8agew,sdv-pii-7nfc5,sdv-pii-rexbn,1,10-05-2012,,07/29/2006,08/20/2009,1.537308709,5.186501452,2.885913987,4.253248878,6,1,11000,1,VA,1,0,0,0,0,web,0,0,0,1,0,0,0,0,0,0,sdv-pii-ysh3f,0,0,0,0,0,0,1.645914803,1,acquired
297,3297,NJ,38.0582425,-74.10601271,sdv-pii-d05h1,sdv-pii-tsffs,sdv-pii-dlj84,,sdv-pii-fasp6,1,08/21/2001,,07/28/2008,10/28/2009,3.105816952,1.397172215,14.70588086,4.96469564,10,4,11000,2,CA,1,0,0,0,1,software,0,0,0,0,0,0,0,0,0,0,sdv-pii-nsv7k,1,0,0,1,1,0,1,1,acquired
298,3298,RI,38.29459481,-72.82079224,sdv-pii-sm6o2,sdv-pii-j9bs0,sdv-pii-klmcz,sdv-pii-4mnyz,sdv-pii-zqx9m,1,02/27/2005,,12/28/2010,07-10-2007,1.190281085,1.48316255,,7.346966715,1,1,11000,3,CA,0,0,0,0,1,ecommerce,0,0,0,0,0,0,0,0,0,1,sdv-pii-lj89h,0,0,1,1,0,1,4.288448236,1,closed
299,3299,CA,42.53753859,-67.53429186,sdv-pii-jz1h8,sdv-pii-rcqpo,sdv-pii-mta2j,sdv-pii-t5i8t,sdv-pii-1aop0,1,03/17/2004,10/17/2011,11/20/2010,01/28/2013,1.135591984,6.135970283,0.265847275,4.427082195,1,3,11000,1,CA,0,0,0,0,0,mobile,0,0,0,0,0,0,0,0,0,1,sdv-pii-2gnv1,0,0,0,1,0,0,1.316278041,1,acquired
300,3300,CA,37.38679744,-65.13490428,sdv-pii-auar9,sdv-pii-jk3dh,sdv-pii-p2ic8,,sdv-pii-pqiqd,1,06/24/2007,,08/26/2009,09/24/2009,-0.209901556,7.309332355,2.326032222,,6,2,11000,3,TX,0,0,0,0,1,software,0,0,0,0,1,0,0,0,0,1,sdv-pii-nzfzl,0,0,1,0,1,0,1.648924629,1,acquired
301,3301,CA,35.03306555,-122.7569561,sdv-pii-k2kaa,sdv-pii-h3n1s,sdv-pii-8elzw,,sdv-pii-0bdm1,1,10-12-2012,,06-07-2008,06/18/2010,1.454325617,10.53550891,3.251893837,-1.726773639,7,4,11000,0,NY,0,0,0,0,1,enterprise,0,0,0,0,0,0,0,0,0,0,sdv-pii-f6xs9,0,0,0,0,1,0,1.079838502,1,acquired
302,3302,TX,37.84412386,-119.0536429,sdv-pii-05rkb,sdv-pii-fa0ob,sdv-pii-bh0y0,,sdv-pii-mpx3z,1,03-04-2001,,05/29/2010,04/30/2013,1.467690099,6.302879332,4.538205682,3.331888279,12,3,11000,5,NY,1,0,0,0,1,enterprise,0,0,0,0,0,0,0,0,0,0,sdv-pii-a3v11,0,0,1,0,0,1,1.459847858,1,acquired
303,3303,CA,38.43091813,-89.46439538,sdv-pii-sg8ma,sdv-pii-22rmi,sdv-pii-1mpf9,,sdv-pii-3xuw8,0,03/28/2004,,09/30/2008,05-01-2007,1.56125615,2.041938482,9.692248225,2.037844863,7,1,11000,3,CA,0,0,0,0,1,enterprise,0,0,0,0,0,0,0,0,0,0,sdv-pii-f4sth,0,0,0,1,0,0,1.832824247,1,acquired
304,3304,CA,37.59112086,-120.8044411,sdv-pii-l8eo2,sdv-pii-hy2gq,sdv-pii-hpo8x,,sdv-pii-lr1q7,0,12-04-2007,09-09-2011,02/17/2009,10/14/2011,-0.176727807,0.394840166,3.700349029,4.102381547,19,2,11000,1,CA,1,0,0,0,0,other,0,0,0,0,0,0,0,0,0,1,sdv-pii-jf4ld,0,0,0,0,0,1,2.110749187,1,closed
305,3305,CA,37.71155046,-74.00039649,sdv-pii-zx3uz,sdv-pii-oy19d,sdv-pii-pqfw4,sdv-pii-qyu6c,sdv-pii-u6fgy,1,12/17/2012,,03/14/2006,11/29/2009,2.956955005,4.564285836,3.761230152,4.430295822,22,1,7928799,1,MA,1,0,0,0,0,advertising,0,0,0,0,0,0,0,0,0,1,sdv-pii-198uq,1,0,0,0,0,0,1.676042487,1,closed
306,3306,CA,41.52905405,-119.1387061,sdv-pii-3sjo2,sdv-pii-zxx01,sdv-pii-ve4d3,,sdv-pii-fd66h,1,02/17/2004,,09-04-2006,09-01-2011,8.84689939,3.517910288,3.471583894,5.221241488,3,5,13676683,5,PA,0,0,1,0,0,mobile,1,0,1,0,0,0,0,0,0,1,sdv-pii-iqgdz,1,1,1,0,0,1,1.850812709,1,closed
307,3307,CA,38.19765103,-66.31230008,sdv-pii-mwpxq,sdv-pii-l3s7q,sdv-pii-5m08v,,sdv-pii-uldq6,0,06-09-2014,,07-07-2010,11/29/2009,1.190608386,2.946388253,10.9087503,,30,6,11000,1,CA,1,0,0,0,0,biotech,0,0,0,0,0,0,0,0,0,0,sdv-pii-bv42s,0,0,1,0,0,0,4.688118,1,acquired
308,3308,OR,38.61358556,-95.6185527,sdv-pii-zfimf,sdv-pii-8cpw0,sdv-pii-rqkg8,sdv-pii-ij6hl,sdv-pii-k8hjg,1,01/27/2004,11-11-2013,08-04-2011,06/16/2010,5.754465922,1.191930387,4.029171657,2.371557596,6,6,11000,1,CA,0,0,1,0,0,software,0,0,0,0,0,0,0,0,0,1,sdv-pii-syohd,0,0,0,0,0,0,2.098678892,0,acquired
309,3309,NY,40.62670491,-73.15370554,sdv-pii-8nlbp,sdv-pii-92eju,sdv-pii-y4ahq,,sdv-pii-hu6u1,1,05/20/2008,,08/18/2008,03-02-2013,3.189194609,2.90477457,3.66523849,5.233323061,12,1,11000,1,NC,1,0,0,0,1,biotech,0,0,0,0,0,0,0,0,0,0,sdv-pii-3zljd,0,1,0,0,0,0,5.533176167,1,acquired
310,3310,CA,41.27763192,-65.06977411,sdv-pii-f4pe5,sdv-pii-bxqps,sdv-pii-f7pes,,sdv-pii-dpkre,1,01-12-2007,,08/30/2009,07/17/2010,4.119179074,1.108773609,,2.018566115,21,4,11000,2,CA,0,1,0,0,0,public_relations,0,0,0,0,0,1,0,0,0,0,sdv-pii-8brd7,1,1,1,0,1,0,1,0,closed
311,3311,CO,37.90544467,-70.57075966,sdv-pii-711d6,sdv-pii-14sll,sdv-pii-mttvi,sdv-pii-zg82j,sdv-pii-p5k79,0,11-01-2002,08/26/2011,03/22/2012,03-01-2008,4.447230461,2.920328602,3.821709998,-2.226126047,4,3,11000,1,CO,0,0,0,0,0,web,0,0,0,0,0,0,0,0,0,0,sdv-pii-r4f64,0,0,1,1,1,0,3.49822647,1,acquired
312,3312,MA,38.10336059,-114.7824551,sdv-pii-3atxm,sdv-pii-nki9e,sdv-pii-n9edk,sdv-pii-hhmjx,sdv-pii-c939b,1,06-01-2011,,09-04-2002,07/29/2010,7.32482881,0.721410935,4.117662126,,0,2,11000,0,NY,0,0,0,0,0,network_hosting,0,0,0,0,0,0,0,0,0,1,sdv-pii-bhvu8,0,0,0,1,0,0,2.988495817,1,closed
313,3313,CA,37.62689672,-64.02399005,sdv-pii-av9lo,sdv-pii-db0fz,sdv-pii-cbn8p,,sdv-pii-fn3mj,0,12-10-2012,,12/23/2007,10-12-2008,1.295836462,6.520123763,3.573877677,,6,3,11000,1,VA,1,0,0,1,0,mobile,1,0,1,1,0,0,0,0,0,1,sdv-pii-6t6i1,0,0,1,1,0,0,4.226691935,1,acquired
314,3314,CA,25.752358,-68.08015171,sdv-pii-y981x,sdv-pii-lqzt5,sdv-pii-994y6,sdv-pii-h0xzw,sdv-pii-ywvd6,1,11/15/2010,,09/26/2013,06/18/2008,2.067501842,6.521669288,13.67570891,,11,3,11000,3,CA,0,0,0,0,0,software,0,1,0,0,0,0,0,0,0,0,sdv-pii-gvf22,0,1,1,1,0,1,1,1,acquired
315,3315,CA,37.35166835,-69.73715466,sdv-pii-1od8b,sdv-pii-0eyih,sdv-pii-htz3p,,sdv-pii-kb78o,0,01-10-2005,09/16/2011,12/23/2003,04-06-2012,1.290861025,7.15378939,3.30377355,9.808566884,14,2,17975143,3,MA,0,0,0,0,0,web,0,0,0,0,0,0,0,0,0,1,sdv-pii-b6zvc,0,0,1,1,0,0,2.997255124,1,acquired
316,3316,CA,40.07900441,-120.1314871,sdv-pii-k7f8s,sdv-pii-57f0r,sdv-pii-sibl6,sdv-pii-cj2c5,sdv-pii-hgg51,1,06-05-2008,,01-04-2007,06/16/2008,1.137209767,4.24064017,3.112161533,4.187630659,2,7,11000,3,IL,0,0,0,0,0,enterprise,0,1,1,0,1,0,0,0,0,0,sdv-pii-j6zz8,0,0,0,0,0,1,2.157073273,1,acquired
317,3317,CA,28.36186345,-116.6709011,sdv-pii-x944i,sdv-pii-0u0e3,sdv-pii-dtjrm,,sdv-pii-c1woj,1,02/13/2001,08/31/2011,11/23/2006,07-01-2007,-0.416366034,10.44633793,3.678895036,2.239349925,50,1,11000,2,CA,1,0,0,1,1,software,0,0,0,0,0,0,0,0,0,0,sdv-pii-7iah7,0,0,0,0,0,0,1,1,acquired
318,3318,CA,43.38819444,-81.3331444,sdv-pii-x1hs7,sdv-pii-mii14,sdv-pii-arjvv,sdv-pii-fz5dt,sdv-pii-qoy9r,1,08/19/2009,,06/27/2006,08/14/2012,0.495508142,6.367909231,3.980059219,6.318283038,12,2,11000,1,CA,1,0,0,0,1,enterprise,0,0,1,0,0,0,0,0,0,1,sdv-pii-2go87,0,1,0,1,1,0,2.902917823,1,acquired
319,3319,CA,33.91479506,-63.19199979,sdv-pii-ritxu,sdv-pii-nist0,sdv-pii-7is3l,,sdv-pii-rg9y4,0,04-09-2003,,08/23/2013,05/30/2011,1.647208466,6.43686378,14.32400796,4.11128401,4,3,11000,1,CA,0,0,0,0,0,games_video,0,0,0,0,0,0,0,0,0,0,sdv-pii-ag320,0,0,0,0,0,0,1.253145767,1,closed
320,3320,NY,38.91177618,-67.19188019,sdv-pii-v94ck,sdv-pii-8ccig,sdv-pii-p9t32,sdv-pii-97pm8,sdv-pii-ygm3n,1,06/28/2003,,11/26/2006,09/14/2007,-0.315385279,4.267150028,6.933170586,4.023461661,4,5,11000,1,CA,0,0,0,0,0,ecommerce,0,1,0,0,0,0,0,0,0,0,sdv-pii-0621q,1,0,0,0,1,0,1,1,acquired
321,3321,MA,43.75777844,-120.0060065,sdv-pii-8m1z0,sdv-pii-2qrq3,sdv-pii-5zvte,sdv-pii-59pnx,sdv-pii-osun6,1,07-08-2003,,06/25/2006,07-02-2011,-0.87950755,5.820654936,3.458240415,3.703033112,9,1,11000,2,CA,0,0,0,0,0,advertising,0,1,0,0,0,0,0,0,0,1,sdv-pii-evila,0,1,1,1,1,0,7.677847376,1,closed
322,3322,CA,37.47602222,-86.08620685,sdv-pii-iux90,sdv-pii-unqnq,sdv-pii-6xt6j,sdv-pii-b8qr7,sdv-pii-huqvg,1,08/31/2002,,10/30/2008,04-06-2009,1.55055767,10.83361165,3.621700659,3.772688671,14,2,11000,0,CA,0,0,0,0,0,enterprise,0,0,1,0,0,0,0,0,0,0,sdv-pii-nyn0k,1,0,0,0,0,0,1,1,acquired
323,3323,MD,52.18479087,-115.4987899,sdv-pii-7yxvc,sdv-pii-05t2q,sdv-pii-ccl6m,,sdv-pii-tju59,1,06/29/2001,08/26/2011,09-09-2003,07-09-2011,0.883307454,-0.274316486,3.107634561,,0,5,11000,0,CA,0,0,0,0,0,web,1,0,0,0,0,1,0,0,0,1,sdv-pii-vwlhq,0,0,0,1,0,0,3.393075944,1,acquired
324,3324,CA,50.24288625,-67.94555829,sdv-pii-uovbi,sdv-pii-z0i4a,sdv-pii-ggpfk,,sdv-pii-havi2,1,04/21/2004,,12-06-2009,06-08-2011,0.649107813,1.573209509,3.617838634,,8,3,11000,0,CA,0,0,0,0,0,mobile,0,0,0,0,0,0,0,0,0,0,sdv-pii-0c9pf,0,0,0,1,0,0,3.495443153,1,closed
325,3325,CA,38.24188167,-92.1234633,sdv-pii-d3xf5,sdv-pii-ruhd8,sdv-pii-dvv1r,sdv-pii-3i4pz,sdv-pii-kteiq,1,04/28/2009,09/13/2011,12-05-2006,11/20/2013,0.499356848,7.43033846,3.57063821,4.141072716,9,1,11000,3,NY,0,0,0,0,0,analytics,0,0,0,0,0,0,0,0,0,0,sdv-pii-jzp94,0,0,0,1,0,0,2.67503604,1,closed
326,3326,CA,38.08923823,-83.88926779,sdv-pii-sooec,sdv-pii-s8mu3,sdv-pii-axu39,,sdv-pii-s4bf0,1,05/16/2003,10-04-2011,12-10-2012,05/19/2011,1.324273894,7.073428403,3.313269837,7.990062595,7,7,11000,1,NH,1,0,0,0,0,semiconductor,0,0,0,0,0,0,0,0,0,0,sdv-pii-pzi4t,1,1,0,1,0,1,1.608130999,1,closed
327,3327,WA,44.46070309,-122.7569561,sdv-pii-1317n,sdv-pii-80p87,sdv-pii-zjrsw,,sdv-pii-ovwsj,0,11-11-1996,,09-10-1997,10/14/2007,3.678651276,9.360222743,3.805867135,4.345966668,3,3,11000,2,CA,0,0,0,0,0,software,0,0,0,0,0,0,0,0,0,0,sdv-pii-1nwy0,0,0,0,1,0,0,1,1,closed
328,3328,NY,40.24274986,-69.78253051,sdv-pii-u8crn,sdv-pii-psca5,sdv-pii-qrpsq,,sdv-pii-3rvyy,1,05/13/2006,,06/17/2010,05/13/2012,0.774825311,6.40189009,3.354771953,3.627696552,1,1,3895870,1,CA,0,0,0,0,0,games_video,0,0,0,0,0,0,0,0,0,1,sdv-pii-459nm,0,0,1,1,0,1,1.335322465,1,acquired
329,3329,CA,45.50069849,-63.50883572,sdv-pii-2lyy7,sdv-pii-sqpe2,sdv-pii-jssp3,,sdv-pii-ukr8n,1,06-03-2012,,06-10-2004,04-08-2014,0.575073562,1.597072788,4.149523381,9.102595773,0,3,11000,2,OR,0,1,1,0,1,analytics,0,0,0,0,0,0,0,0,0,0,sdv-pii-0rfj1,1,0,0,1,1,0,5.161675702,1,acquired
330,3330,CA,37.80564512,-84.63703536,sdv-pii-c026k,sdv-pii-emev2,sdv-pii-6cvx0,sdv-pii-n3kgi,sdv-pii-alved,1,11-08-2001,11-08-2011,02/28/2012,05/19/2005,1.947403583,2.148574926,3.442706358,-2.236597548,4,1,11000,1,CO,1,0,0,0,1,semiconductor,0,0,0,0,0,0,0,0,0,0,sdv-pii-ko6w8,0,1,1,1,1,1,1,1,closed
331,3331,CA,38.12767961,-115.9975623,sdv-pii-hccue,sdv-pii-z5txv,sdv-pii-55c51,,sdv-pii-w3uva,1,05/19/2012,10/15/2011,03/23/2009,11/16/2010,-0.008973103,3.758779624,3.511467015,-0.24089065,11,3,11000,3,CA,0,0,0,0,0,hardware,0,0,0,0,0,0,0,0,0,1,sdv-pii-5bgni,0,1,1,0,1,0,5.194348303,1,acquired
332,3332,RI,44.47978316,-77.03000511,sdv-pii-c7m87,sdv-pii-7pwkz,sdv-pii-0rm05,,sdv-pii-cqlzn,1,03-10-2014,09/23/2011,08/27/2004,04-03-2012,-0.337331981,7.0395053,8.353338095,6.948382821,10,4,11000,2,NY,0,0,0,0,0,ecommerce,0,0,0,0,0,0,0,0,0,0,sdv-pii-nywej,0,1,0,1,0,0,10.94461942,1,acquired
333,3333,CA,42.91363699,-86.97531154,sdv-pii-9cvi3,sdv-pii-wgrsr,sdv-pii-hxkf6,,sdv-pii-8l3kr,0,02/17/2014,,05/19/1998,06-12-2010,0.46681546,1.342784515,4.243195409,4.429987209,1,4,11000,3,CA,1,0,0,0,0,semiconductor,0,0,0,0,0,0,0,0,0,1,sdv-pii-bx0ln,0,1,1,0,0,0,2.925965994,1,acquired
334,3334,CA,37.77008193,-104.1975667,sdv-pii-te4ig,sdv-pii-ouivn,sdv-pii-v5oo6,sdv-pii-0u000,sdv-pii-cdp9w,1,10-05-2013,09-02-2011,07/15/2006,12-04-2006,3.66028168,6.944690304,10.15540172,1.67592931,1,2,11000,0,CO,0,0,0,0,1,social,0,0,0,0,0,0,0,0,0,0,sdv-pii-wdyiu,0,0,1,1,1,0,1,1,acquired
335,3335,CA,38.40565308,-119.8019531,sdv-pii-wbzy5,sdv-pii-0p17g,sdv-pii-xgzn9,,sdv-pii-y2knz,1,02/20/2005,,12/24/2009,05/21/2008,0.176628926,8.336768954,13.28372417,9.744985363,0,2,11000,0,CA,1,0,0,0,0,analytics,0,0,0,0,0,0,0,0,0,1,sdv-pii-qsvbu,0,1,1,0,1,0,2.622988033,0,acquired
336,3336,CA,39.10963837,-119.9589235,sdv-pii-qf8bg,sdv-pii-cx1r7,sdv-pii-m3k0j,,sdv-pii-41c4s,0,02/19/1990,09-12-2011,10/17/2007,08/26/2013,4.007852349,1.769411813,1.529285128,3.644893093,3,2,11000,2,CA,0,0,0,0,1,advertising,0,1,0,0,0,0,0,0,0,1,sdv-pii-uevpd,1,1,1,1,0,0,1,1,acquired
337,3337,CA,51.0184524,-67.35696495,sdv-pii-5bxwz,sdv-pii-ctd83,sdv-pii-lwrls,sdv-pii-lbkd6,sdv-pii-upbvr,1,04/25/2001,,08/28/2010,09-03-2011,6.695601845,7.35092426,3.223684924,1.281062988,15,1,11000,3,NY,0,0,0,0,1,consulting,0,1,0,0,0,0,0,0,0,0,sdv-pii-ixfj6,0,0,1,0,0,0,1,1,acquired
338,3338,CA,36.37598907,-69.83177709,sdv-pii-het30,sdv-pii-xzn2z,sdv-pii-x02nk,sdv-pii-wqmvv,sdv-pii-7dph2,1,09/25/2005,09/17/2011,07-05-2004,02-03-2012,-0.264168486,19.5814468,9.510669711,3.47438912,12,1,11000,1,CA,0,0,0,0,1,mobile,0,1,0,1,0,1,1,1,0,1,sdv-pii-jt3p4,0,0,0,0,0,0,3.396063997,0,closed
339,3339,MA,37.08674667,-115.551744,sdv-pii-zkcaq,sdv-pii-mri0d,sdv-pii-euvyb,sdv-pii-gsi5i,sdv-pii-la3c4,1,06/23/2008,,06/29/2009,11/23/2010,-0.658873039,5.891864429,3.482502372,,3,3,4971654,0,MA,0,0,0,0,0,cleantech,0,0,0,0,0,0,0,0,0,1,sdv-pii-zlt9i,1,0,0,0,1,0,1.551255082,1,acquired
340,3340,TX,37.4633323,-72.3410968,sdv-pii-4bl18,sdv-pii-40zeb,sdv-pii-wy8mu,,sdv-pii-c5ue5,0,01/16/2001,,01/13/2005,02/15/2009,2.193050895,3.057685145,,9.538673228,4,4,783877,3,NY,0,0,1,0,1,public_relations,0,0,0,0,1,0,0,0,0,1,sdv-pii-obkql,0,0,0,0,1,1,1,1,acquired
341,3341,CO,51.58171769,-117.9601006,sdv-pii-wfpcz,sdv-pii-cr4ff,sdv-pii-a4d49,,sdv-pii-gsegh,1,01/13/2003,,07/27/2009,07/14/2012,-0.48613523,5.800975032,,-0.429875885,12,1,12863907,6,WA,1,0,0,0,0,advertising,0,0,0,0,0,0,0,0,0,1,sdv-pii-tyf8d,1,1,0,1,0,0,2.256967279,1,acquired
342,3342,CA,37.50637656,-66.44427298,sdv-pii-gr06q,sdv-pii-dxfca,sdv-pii-wy8mj,sdv-pii-x3tuo,sdv-pii-vjeio,1,03-02-2006,,04/26/2006,08/24/2011,0.139286402,1.808206822,3.84391703,10.76100251,1,1,1418115,1,CA,0,0,0,0,1,network_hosting,0,0,0,0,0,0,0,0,0,1,sdv-pii-ja3an,1,1,0,1,1,0,1,1,closed
343,3343,CA,50.90367195,-64.90984725,sdv-pii-h3yr6,sdv-pii-w5wfn,sdv-pii-rho5k,sdv-pii-oqem6,sdv-pii-g3b0d,1,03-02-2006,09/17/2011,07/19/2007,09/26/2013,2.396159494,0.801664197,,5.654679548,6,1,11000,3,NY,1,0,0,0,0,software,0,0,1,0,0,0,0,0,0,1,sdv-pii-lc5kl,1,1,0,0,0,0,1.482815747,1,closed
344,3344,CA,43.05403633,-68.97725828,sdv-pii-8qvu3,sdv-pii-1tl2b,sdv-pii-hl2am,sdv-pii-2pvso,sdv-pii-bxsjx,1,11/24/2001,,10/29/2005,05-04-2008,0.266914182,7.413728086,4.87124945,0.845169725,2,4,11000,1,NY,0,0,0,0,1,security,0,0,0,1,0,0,0,0,0,0,sdv-pii-8m7rk,1,1,1,0,0,0,1.591786599,1,acquired
345,3345,NY,49.08548379,-119.9374117,sdv-pii-2kjm4,sdv-pii-drx8y,sdv-pii-8jrwc,,sdv-pii-sev2g,1,01/21/2013,,04/23/2007,03-08-2007,8.081134647,2.805373331,3.190842535,4.57216391,6,1,11000,3,CA,1,0,0,0,1,social,0,0,0,0,1,0,0,0,0,0,sdv-pii-zvun5,0,0,0,1,1,0,4.040925905,1,closed
346,3346,CA,38.07000207,-64.59674726,sdv-pii-ri4p3,sdv-pii-if8fi,sdv-pii-a2ljx,sdv-pii-7115d,sdv-pii-f0tst,1,12-02-2006,11-09-2011,04-07-2009,09/22/2012,4.538021195,2.32528604,,3.695215139,12,1,11000,0,CA,0,0,0,0,0,public_relations,0,0,0,0,0,0,0,0,0,0,sdv-pii-8i0z2,1,1,0,1,0,0,3.489621338,0,acquired
347,3347,FL,42.33324063,-67.37317652,sdv-pii-av3df,sdv-pii-srxm2,sdv-pii-ivtk1,,sdv-pii-agk26,1,08-01-2008,,03/16/2004,08-05-2013,-1.449253217,2.37363741,1.648300616,2.06595825,8,2,11000,3,CO,0,0,0,0,0,biotech,0,0,0,0,1,0,0,0,0,0,sdv-pii-a45zc,1,1,0,1,0,0,1.676266824,1,acquired
348,3348,CO,37.65507539,-68.05426898,sdv-pii-58a6u,sdv-pii-gugxj,sdv-pii-etl3r,,sdv-pii-7i3lt,1,02-09-2003,,04/29/2005,07-08-2010,1.837255532,3.910154193,9.139555487,-0.552421476,5,2,11148845,2,WA,0,0,0,0,1,network_hosting,0,0,1,0,0,0,0,0,0,0,sdv-pii-uc9w5,0,0,0,1,0,0,5.349349445,1,acquired
